plant_name_eia,generator_id,capacity_mw,summer_capacity_mw,winter_capacity_mw,p_nom_min,Status,Operating Year,tech_type,fuel_type,prime_mover,plant_id_eia,State,Latitude,Longitude,NERC Region,Balancing Authority Code,GeneratorName, Turbine Type,MustRun,MinimumDownTime(hr),MinimumUpTime(hr),MaxUpTime(hr),RampUp Rate(MW/minute),RampDn Rate(MW/minute),Startup Cost Fixed($),StartFuel(MMBTu),Startup Time,VOM Cost,IOMaxCap(MW),IOMinCap(MW),MinInput(MMBTu),IncCap2(MW),IncHR2(MMBTu/MWh),IncCap3(MW),IncHR3(MMBTu/MWh),IncCap4(MW),IncHR4(MMBTu/MWh),IncCap5(MW),IncHR5(MMBTu/MWh),IncCap6(MW),IncHR6(MMBTu/MWh),IncCap7(MW),IncHR7(MMBTu/MWh),generator_name_alt,generator_key,ads_name,long id,bus id,bus name,devstatus,balancing_area,region name,plant_id_ads
Palo Verde,3,1403.2,1312,1334,110,OP,1988,Nuclear,Nuclear,CT,6008,AZ,33.3881,-112.8617,WECC,SRP,Palo Verde 3,ST-NUC,TRUE,1,1,-1,6.98,6.98,170655,0,1,5.633296,1334,1334,14134.51,0,0,0,0,0,0,0,0,0,0,0,0,paloverde3,13306,paloverde3,AZ-6008-3,14933,PALOVRD3,Existing,TH_PV,SW_TH_PV,6008
Palo Verde,2,1403.2,1314,1336,110,OP,1986,Nuclear,Nuclear,CT,6008,AZ,33.3881,-112.8617,WECC,SRP,Palo Verde 2,ST-NUC,TRUE,1,1,-1,6.98,6.98,170902.9,0,1,5.633296,1336,1336,14237.06,0,0,0,0,0,0,0,0,0,0,0,0,paloverde2,13305,paloverde2,AZ-6008-2,14932,PALOVRD2,Existing,TH_PV,SW_TH_PV,6008
Palo Verde,1,1403.2,1311,1333,110,OP,1986,Nuclear,Nuclear,CT,6008,AZ,33.3881,-112.8617,WECC,SRP,Palo Verde 1,ST-NUC,TRUE,1,1,-1,6.98,6.98,170531.1,0,1,5.633296,1333,1333,14389.1,0,0,0,0,0,0,0,0,0,0,0,0,paloverde1,13304,paloverde1,AZ-6008-1,14931,PALOVRD1,Existing,TH_PV,SW_TH_PV,6008
Columbia Generating Station,2,1200,1151,1172,120,OP,1984,Nuclear,Nuclear,CT,371,WA,46.4711,-119.3339,WECC,BPAT,Columbia2,ST-NUC,TRUE,1,1,-1,6.98,6.98,145001,0,1,5.633296,1185,1185,12104.73,0,0,0,0,0,0,0,0,0,0,0,0,columbia2,2491,columbia2,WA-371-2,40063,CGS,Existing,BPAT,NW_BPAT,371
Diablo Canyon,2,1164,1118,1118,0,OP,1986,Nuclear,Nuclear,CT,6099,CA,35.211536,-120.855542,WECC,CISO,DiabloCanyon2,ST-NUC,TRUE,168,168,-1,6.98,6.98,148719,0,1,5.633296,1200,941,12867.88,259,11,0,0,0,0,0,0,0,0,0,0,diablocanyon2,1249,diablocanyon2,CA-6099-2,36412,DIABLO 2,Existing,CIPV,CA_CISO,6099
Diablo Canyon,1,1159,1122,1122,0,OP,1985,Nuclear,Nuclear,CT,6099,CA,35.211536,-120.855542,WECC,CISO,DiabloCanyon1,ST-NUC,TRUE,168,168,-1,6.98,6.98,148719,0,1,5.633296,1200,941,12867.88,259,11,0,0,0,0,0,0,0,0,0,0,diablocanyon1,1248,diablocanyon1,CA-6099-1,36411,DIABLO 1,Existing,CIPV,CA_CISO,6099
Comanche (CO),3,856.8,750,766,450,OP,2010,Coal,Coal,CT,470,CO,38.2081,-104.5747,WECC,WACM,Comanche 3,ST-Col,FALSE,48,108,-1,26.81,26.81,98515.81,15396.6,1,3.76,766,466.261,4548.511,59.948,7.967,59.948,8.472,59.947,8.976,59.948,9.481,59.948,9.985,0,0,comanche3,13888,comanche3,CO-470-3,70777,COMAN_3,Existing,PSCO,RM_PSCO,470
Colstrip,4,823.7,740,740,200,OP,1986,Coal,Coal,CT,6076,MT,45.8831,-106.614,WECC,NWMT,Colstrip_4,ST-Col,FALSE,48,108,-1,25.9,25.9,86573.67,10360,1,2.4,740.0001,219.259,2799.693,104.148,9.307,104.149,9.512,104.148,9.716,104.148,9.921,104.148,10.125,0,0,colstrip4,3507,colstrip4,MT-6076-4,623504,COLSTRIP GN4,Existing,NWMT,NW_NWMT,6076
Colstrip,3,823.7,740,740,200,OP,1984,Coal,Coal,CT,6076,MT,45.8831,-106.614,WECC,NWMT,Colstrip_3,ST-Col,FALSE,48,108,-1,25.9,25.9,86573.67,10360,1,2.4,740.0001,219.259,2690.189,104.148,9.583,104.149,9.924,104.148,10.266,104.148,10.607,104.148,10.948,0,0,colstrip3,3506,colstrip3,MT-6076-3,623503,COLSTRIP GN3,Existing,NWMT,NW_NWMT,6076
Intermountain Power Project,2,820,900,900,270,OP,1987,Coal,Coal,CT,6481,UT,39.509731,-112.58018,WECC,LDWP,Intermountain CC 2,,,8,2,-1,23.88,23.88,34677.74,100.8,1,1.8,398,200,1513.905,90,5.402,108,5.85,,,,,,,,,,17212,intermountaincc2,,26040,INTERM2G,Existing,LDWP,CA_LDWP,
Intermountain Power Project,1,820,900,900,270,OP,1986,Coal,Coal,CT,6481,UT,39.509731,-112.58018,WECC,LDWP,Intermountain CC 2,,,8,2,-1,23.88,23.88,34677.74,100.8,1,1.8,398,200,1513.905,90,5.402,108,5.85,,,,,,,,,,17212,intermountaincc2,,26040,INTERM2G,Existing,LDWP,CA_LDWP,
Four Corners,5,818.1,770,770,364,OP,1970,Coal,Coal,CT,2442,NM,36.69,-108.4814,WECC,AZPS,,,,,,,,,,,,,,,,,,,,,,,,,,,,,,,,,,,,,
Four Corners,4,818.1,770,770,364,OP,1969,Coal,Coal,CT,2442,NM,36.69,-108.4814,WECC,AZPS,,,,,,,,,,,,,,,,,,,,,,,,,,,,,,,,,,,,,
Ormond Beach,2,806,750,750,50,OP,1973,Gas_SC,Gas,CT,350,CA,34.1292,-119.1689,WECC,CISO,Ormond_Beach_2,ST-NG,FALSE,4,2,-1,77.5,77.5,53246.34,6913,1,0.29,750,50,928.5801,140,8.06,140,8.387,140,8.715,140,9.042,140,9.369,0,0,ormondbeach2,1014,ormondbeach2,CA-350-2,24108,ORMOND2G,Existing,CISC,CA_CISO,350
Ormond Beach,1,806,741,741,100,OP,1971,Gas_SC,Gas,CT,350,CA,34.1292,-119.1689,WECC,CISO,Ormond_Beach_1,ST-NG,FALSE,4,2,-1,74.1,74.1,50910.38,6609.72,1,0.29,741,100,1557.267,128.2,7.488,128.2,8.056,128.2,8.625,128.2,9.194,128.2,9.763,0,0,ormondbeach1,1013,ormondbeach1,CA-350-1,24107,ORMOND1G,Existing,CISC,CA_CISO,350
Grand Coulee,22,805,805,805,0,OP,1978,Hydro,,HY,6163,WA,47.957511,-118.977323,WECC,BPAT,,,,,,,,,,,,,,,,,,,,,,,,,,,,,,,,,,,,,
Grand Coulee,23,805,805,805,0,OP,1979,Hydro,,HY,6163,WA,47.957511,-118.977323,WECC,BPAT,,,,,,,,,,,,,,,,,,,,,,,,,,,,,,,,,,,,,
Grand Coulee,24,805,805,805,0,OP,1980,Hydro,,HY,6163,WA,47.957511,-118.977323,WECC,BPAT,,,,,,,,,,,,,,,,,,,,,,,,,,,,,,,,,,,,,
Transalta Centralia Generation,2,729.9,670,670,250,OP,1973,Coal,Coal,CT,3845,WA,46.755938,-122.859764,WECC,BPAT,,,,,,,,,,,,,,,,,,,,,,,,,,,,,,,,,,,,,
Laramie River Station,3,621,570,570,230,OP,1982,Coal,Coal,CT,6204,WY,42.108889,-104.8825,WECC,WACM,LaramieRiver3,ST-Col,FALSE,48,108,-1,21.175,21.175,70779.83,7980,1,2.4,570,211.452,2851.214,71.709,11.158,71.71,11.169,71.71,11.179,71.709,11.19,71.71,11.201,0,0,laramieriver3,4029,laramieriver3,WY-6204-3,73130,MBPP-2,Existing,WACM,RM_WACM,6204
Laramie River Station,2,621,570,570,200,OP,1981,Coal,Coal,CT,6204,WY,42.108889,-104.8825,WECC,WACM,LaramieRiver2,ST-Col,FALSE,48,108,-1,21.175,21.175,70779.83,7980,1,2.4,570,203.902,2451.508,73.22,8.9,73.219,9.499,73.22,10.099,73.219,10.698,73.22,11.297,0,0,laramieriver2,4030,laramieriver2,WY-6204-2,73129,MBPP-1,Existing,WACM,RM_WACM,6204
Laramie River Station,1,621,560,560,200,OP,1981,Coal,Coal,CT,6204,WY,42.108889,-104.8825,WECC,WACM,LaramieRiver2,,,48,108,-1,21.175,21.175,70779.83,7980,1,2.4,570,207.677,2651.361,72.4645,10.029,72.4645,10.334,,,,,,,,,,4030,laramieriver2,,73129,MBPP-1,Existing,WACM,RM_WACM,
Jim Bridger,2,617,539,539,40,OP,1975,Coal,Coal,CT,8066,WY,41.7378,-108.7875,WECC,PACE,Jim_Bridger_2,ST-Col,FALSE,48,108,-1,18.445,18.445,61654.5,7378,1,2.4,527,118.121,1461.133,81.776,9.006,81.775,9.615,81.776,10.223,81.776,10.832,81.776,11.441,0,0,jimbridger2,3462,jimbridger2,WY-8066-2,65387,BRIDGER2,Existing,PAWY,BS_PACE,8066
Jim Bridger,3,608.3,523,523,65,OP,1976,Coal,Coal,CT,8066,WY,41.7378,-108.7875,WECC,PACE,Jim_Bridger_3,ST-Col,FALSE,48,108,-1,18.305,18.305,61186.53,7322,1,2.4,523,140,1803.496,76.6,10.147,76.6,10.435,76.6,10.722,76.6,11.009,76.6,11.296,0,0,jimbridger3,3461,jimbridger3,WY-8066-3,65388,BRIDGER3,Existing,PAWY,BS_PACE,8066
Jim Bridger,4,608.3,526,526,65,OP,1979,Coal,Coal,CT,8066,WY,41.7378,-108.7875,WECC,PACE,Jim_Bridger_4,ST-Col,FALSE,48,108,-1,18.55,18.55,62005.47,7420,1,2.4,530,140,1600.793,78,8.975,78,9.23,78,9.485,78,9.74,78,9.996,0,0,jimbridger4,3391,jimbridger4,WY-8066-4,65389,BRIDGER4,Existing,PAWY,BS_PACE,8066
Jim Bridger,1,608.3,531,531,50,OP,1974,Coal,Coal,CT,8066,WY,41.7378,-108.7875,WECC,PACE,Jim_Bridger_1,ST-Col,FALSE,48,108,-1,18.585,18.585,62122.46,7434,1,2.4,531,121.105,1364.22,81.979,9.378,81.979,9.582,81.979,9.786,81.979,9.991,81.979,10.195,0,0,jimbridger1,3463,jimbridger1,WY-8066-1,65386,BRIDGER1,Existing,PAWY,BS_PACE,8066
Grand Coulee,19,600,690,690,0,OP,1975,Hydro,,HY,6163,WA,47.957511,-118.977323,WECC,BPAT,,,,,,,,,,,,,,,,,,,,,,,,,,,,,,,,,,,,,
Grand Coulee,20,600,690,690,0,OP,1976,Hydro,,HY,6163,WA,47.957511,-118.977323,WECC,BPAT,,,,,,,,,,,,,,,,,,,,,,,,,,,,,,,,,,,,,
Grand Coulee,21,600,690,690,0,OP,1976,Hydro,,HY,6163,WA,47.957511,-118.977323,WECC,BPAT,,,,,,,,,,,,,,,,,,,,,,,,,,,,,,,,,,,,,
Rush Creek Wind,GEN1,600,582.3,582.3,1,OP,2018,Wind,,WT,60619,CO,39.172111,-103.845358,WECC,PSCO,,,,,,,,,,,,,,,,,,,,,,,,,,,,,,,,,,,,,
Pawnee,1,552.3,505,505,200,OP,1981,Coal,Coal,CT,6248,CO,40.2217,-103.6803,WECC,PSCO,Pawnee 1,ST-Col,FALSE,48,108,-1,17.675,17.675,59080.68,7070,1,2.4,505,205.741,2555.157,59.852,11.073,59.851,11.207,59.852,11.342,59.852,11.476,59.852,11.61,0,0,pawnee1,13796,pawnee1,CO-6248-1,70310,PAWNEE,Existing,PSCO,RM_PSCO,6248
Huntington,1,541.3,459,459,60,OP,1977,Coal,Coal,CT,8069,UT,39.3792,-111.0781,WECC,PACE,Huntington_1,ST-Col,FALSE,48,108,-1,16.065,16.065,53699.07,6426,1,2.4,459.0001,103.041,1195.922,71.192,8.642,71.191,8.823,71.192,9.004,71.192,9.184,71.192,9.365,0,0,huntington1,3655,huntington1,UT-8069-1,65795,HUNTN G1,Existing,PAUT,BS_PACE,8069
Craig (CO),3,534.8,448,448,130,OP,1984,Coal,Coal,CT,6021,CO,40.4627,-107.5912,WECC,WACM,,,,,,,,,,,,,,,,,,,,,,,,,,,,,,,,,,,,,
Hunter,3,527.2,471,471,60,OP,1983,Coal,Coal,CT,6165,UT,39.1747,-111.0289,WECC,PACE,Hunter_3,ST-Col,FALSE,48,108,-1,16.1,16.1,53816.07,6440,1,2.4,460,154.851,1817.873,61.03,8.68,61.03,9.418,61.03,10.155,61.029,10.893,61.03,11.63,0,0,hunter3,3638,hunter3,UT-6165-3,65500,EHUNTR 3,Existing,PAUT,BS_PACE,6165
Hunter,1,525,446,446,80,OP,1978,Coal,Coal,CT,6165,UT,39.1747,-111.0289,WECC,PACE,Hunter_1,ST-Col,FALSE,48,108,-1,16.485,16.485,55102.97,6594,1,2.4,471,137.375,1479.846,66.725,7.565,66.725,8.324,66.725,9.084,66.725,9.843,66.725,10.603,0,0,hunter1,3636,hunter1,UT-6165-1,65490,EHUNTR 1,Existing,PAUT,BS_PACE,6165
Hunter,2,525,446,446,80,OP,1980,Coal,Coal,CT,6165,UT,39.1747,-111.0289,WECC,PACE,Hunter_2,ST-Col,FALSE,48,108,-1,15.05,15.05,50306.32,6020,1,2.4,430,125.417,1504.706,60.916,8.662,60.917,9.636,60.917,10.611,60.916,11.585,60.917,12.559,0,0,hunter2,3637,hunter2,UT-6165-2,65495,EHUNTR 2,Existing,PAUT,BS_PACE,6165
TB Flats,1,503.2,503.2,503.2,1,OP,2021,Wind,,WT,62516,WY,42.177245,-106.234141,WECC,PACE,,,,,,,,,,,,,,,,,,,,,,,,,,,,,,,,,,,,,
Bonanza,1,499.5,458,458,210,OP,1986,Coal,Coal,CT,7790,UT,40.0864,-109.2844,WECC,PACE,Bonanza,ST-Col,FALSE,48,108,-1,16.03,16.03,53582.09,6412,1,2.4,458,214.98,2544.484,48.604,9.473,48.604,10.088,60.755,10.78,85.057,11.702,0,0,0,0,bonanza,3619,bonanza,UT-7790-1,65191,BONANZA,Existing,PAUT,BS_PACE,7790
Cheyenne Ridge Wind Farm,CRW01,498.4,477.1,477.1,1,OP,2020,Wind,,WT,62952,CO,39.016944,-102.2113,WECC,PSCO,,,,,,,,,,,,,,,,,,,,,,,,,,,,,,,,,,,,,
Huntington,2,496,450,450,60,OP,1974,Coal,Coal,CT,8069,UT,39.3792,-111.0781,WECC,PACE,Huntington_2,ST-Col,FALSE,48,108,-1,15.75,15.75,52646.15,6300,1,2.4,450,120,1389.719,66,9.113,66,9.371,66,9.63,66,9.888,66,10.146,0,0,huntington2,3656,huntington2,UT-8069-2,65800,HUNTN G2,Existing,PAUT,BS_PACE,8069
AES Alamitos LLC,5,495,485,485,70,OP,1964,Gas_SC,Gas,CT,315,CA,33.7688,-118.1009,WECC,CISO,,,,,,,,,,,,,,,,,,,,,,,,,,,,,,,,,,,,,
AES Redondo Beach LLC,8,495,480,486.9,130,OP,1967,Gas_SC,Gas,CT,356,CA,33.8504,-118.395,WECC,CISO,RedondoBeach8,ST-NG,FALSE,4,2,-1,48.345,48.345,33215.41,4312.374,1,0.29,486.9,129.178,1590.842,71.544,8.602,71.545,8.725,71.544,8.85,71.545,8.973,71.544,9.098,0,0,redondobeach8,939,redondobeach8,CA-356-8,24124,REDON8 G,Existing,CISC,CA_CISO,356
Dry Fork Station,1,483.7,390,405,260,OP,2011,Coal,Coal,CT,56609,WY,44.388889,-105.460833,WECC,WACM,Dry Fork Station,,,48,108,-1,15.4,15.4,51476.24,5670,1,2.4,405,260,2811.032,29,10.234,43.5,10.4,,,,,,,,,,14001,dryforkstation,,76404,DRYFORK,Existing,WACM,RM_WACM,
Springerville,4,458.1,415,415,170,OP,2009,Coal,Coal,CT,8223,AZ,34.3186,-109.1639,WECC,TEPC,Springerville 4,ST-Col,FALSE,48,108,-1,14.525,14.525,48551.45,5810,1,2.4,415,264.091,2742.582,30.182,9.309,45.272,9.332,75.455,9.369,0,0,0,0,0,0,springerville4,13402,springerville4,AZ-8223-4,160921,SPR_GEN4,Existing,TEPC,SW_TEPC,8223
Springerville,3,458.1,417,417,132,OP,2006,Coal,Coal,CT,8223,AZ,34.3186,-109.1639,WECC,TEPC,Springerville 3,ST-Col,FALSE,48,108,-1,14.595,14.595,48785.43,5838,1,2.4,417,271.753,2830.322,29.049,9.375,43.574,9.398,72.624,9.434,0,0,0,0,0,0,springerville3,13908,springerville3,AZ-8223-3,160920,SPR_GEN3,Existing,TEPC,SW_TEPC,8223
Craig (CO),2,446.4,410,410,130,OP,1979,Coal,Coal,CT,6021,CO,40.4627,-107.5912,WECC,WACM,,,,,,,,,,,,,,,,,,,,,,,,,,,,,,,,,,,,,
Craig (CO),1,446.4,427,427,130,OP,1980,Coal,Coal,CT,6021,CO,40.4627,-107.5912,WECC,WACM,,,,,,,,,,,,,,,,,,,,,,,,,,,,,,,,,,,,,
Springerville,1,424.8,381,381,123,OP,1985,Coal,Coal,CT,8223,AZ,34.3186,-109.1639,WECC,TEPC,Springerville 1,ST-Col,FALSE,48,108,-1,13.545,13.545,45275.69,5418,1,2.4,387,210,1976.503,35.4,8.657,53.1,8.839,88.5,9.131,0,0,0,0,0,0,springerville1,13389,springerville1,AZ-8223-1,160918,SPR_GEN1,Existing,TEPC,SW_TEPC,8223
Springerville,2,424.8,406,406,124,OP,1990,Coal,Coal,CT,8223,AZ,34.3186,-109.1639,WECC,TEPC,Springerville 2,ST-Col,FALSE,48,108,-1,14.21,14.21,47498.53,5684,1,2.4,406,255,2309.168,30.2,8.541,45.3,8.685,75.5,8.916,0,0,0,0,0,0,springerville2,13390,springerville2,AZ-8223-2,160919,SPR_GEN2,Existing,TEPC,SW_TEPC,8223
Coronado,CO1,410.9,380,380,50,OP,1979,Coal,Coal,CT,6177,AZ,34.5789,-109.2708,WECC,SRP,Coronado CO1,ST-Col,FALSE,48,108,-1,13.3,13.3,44456.75,5320,1,2.4,380,138.182,1857.493,48.363,10.931,48.364,11.161,60.455,11.421,84.636,11.767,0,0,0,0,coronadoco1,13384,coronadoco1,AZ-6177-CO1,15971,CORONAD1,Existing,SRP,SW_SRP,6177
Coronado,CO2,410.9,382,382,170,OP,1980,Coal,Coal,CT,6177,AZ,34.5789,-109.2708,WECC,SRP,Coronado CO2,ST-Col,FALSE,48,108,-1,13.37,13.37,44690.73,5348,1,2.4,382,170,2077.789,42.4,10.831,42.4,11.056,53,11.309,74.2,11.647,0,0,0,0,coronadoco2,13385,coronadoco2,AZ-6177-CO2,15972,CORONAD2,Existing,SRP,SW_SRP,6177
Wyodak,1,402.3,332,335,130,OP,1978,Coal,Coal,CT,6101,WY,44.290128,-105.381482,WECC,PACE,Wyodak,ST-Col,FALSE,48,108,-1,11.9,11.9,39777.09,4760,1,2.4,340,58.594,930.2446,56.281,10.907,56.281,11.261,70.352,11.66,98.492,12.192,0,0,0,0,wyodak,3698,wyodak,WY-6101-1,66730,WYODAK 1,Existing,PAWY,BS_PACE,6101
Dave Johnston,4,400,330,330,125,OP,1972,Coal,Coal,CT,4158,WY,42.8378,-105.7769,WECC,PACE,Dave_Johnston_4,ST-Col,FALSE,6,12,-1,6.6,6.6,48926.96,4620,1,1.79,330,180,2024.69,30,10.355,45,10.572,75,10.919,0,0,0,0,0,0,davejohnston4,3635,davejohnston4,WY-4158-4,65445,DAVEJON4,Existing,PAWY,BS_PACE,4158
Comanche (CO),2,396,335,335,170,OP,1975,Coal,Coal,CT,470,CO,38.2081,-104.5747,WECC,WACM,Comanche 3,,,48,108,-1,26.81,26.81,98515.81,15396.6,1,3.76,766,466.261,4548.511,59.948,7.967,59.948,8.472,,,,,,,,,,13888,comanche3,,70777,COMAN_3,Existing,PSCO,RM_PSCO,
Naughton,3,384,247,247,50,OP,1971,Gas_SC,Gas,CT,4162,WY,41.7581,-110.5983,WECC,PACE,Naughton2,,,48,108,-1,6.2475,6.2475,20882.975,1665.405,1,2.4,178.5,44.6285,593.698,26.7745,9.837,40.1615,10.463,,,,,,,,,,11093,naughton2,,66060,NAUGT G2,Existing,PAWY,BS_PACE,
Cherokee,4,380.8,310,310,220,OP,1968,Gas_SC,Gas,CT,469,CO,39.807275,-104.964548,WECC,PSCO,Cherokee 4 Coal,ST-Col,FALSE,48,108,-1,13.405,13.405,44807.73,5331.2,1,2.4,383,215,1723.071,56,9.636,56,9.887,56,10.209,0,0,0,0,0,0,cherokee4coal,14129,cherokee4coal,CO-469-4,70106,CHEROK4,Existing,PSCO,RM_PSCO,469
Clearwater Wind I,CW1,365.5,365.5,365.5,0,OP,2022,Wind,,WT,65577,MT,46.81771,-106.378853,WECC,PSEI,,,,,,,,,,,,,,,,,,,,,,,,,,,,,,,,,,,,,
Helms Pumped Storage,1,351,404,404,83,OS,1984,Hydro,,PS,6100,CA,37.029304,-118.968252,WECC,CISO,,,,,,,,,,,,,,,,,,,,,,,,,,,,,,,,,,,,,
Helms Pumped Storage,2,351,404,404,83,OP,1984,Hydro,,PS,6100,CA,37.029304,-118.968252,WECC,CISO,,,,,,,,,,,,,,,,,,,,,,,,,,,,,,,,,,,,,
Helms Pumped Storage,3,351,404,404,83,OP,1984,Hydro,,PS,6100,CA,37.029304,-118.968252,WECC,CISO,,,,,,,,,,,,,,,,,,,,,,,,,,,,,,,,,,,,,
Mohave County Wind Farm,MCWF,350,350,350,0,OP,2020,Wind,,WT,63114,AZ,35.791142,-114.504504,WECC,WALC,,,,,,,,,,,,,,,,,,,,,,,,,,,,,,,,,,,,,
Red Cloud Wind LLC,1,350,350,350,70,OP,2021,Wind,,WT,63981,NM,34.274062,-105.42291,WECC,PNM,,,,,,,,,,,,,,,,,,,,,,,,,,,,,,,,,,,,,
Colusa Generating Station,C,349.4,306,306,40,OP,2010,Gas_CC,Gas,CC,56532,CA,39.3661,-122.27,WECC,CISO,Colusa CC1b,,,6,2,-1,20.352,20.352,26403.87,81.408,1,2.1,334,165,1206.83,33.167,6.054,33.166,6.083,,,,,,,,,,15927,colusacc1b,,31924,COLUSAPPCTG2,Existing,CIPV,CA_CISO,
Lower Snake River Wind Energy Project,LSR 1,342.7,342.7,342.7,0,OP,2012,Wind,,WT,57195,WA,46.524167,-117.821666,WECC,BPAT,,,,,,,,,,,,,,,,,,,,,,,,,,,,,,,,,,,,,
Fort St Vrain,1,342.6,301,304,39,OP,1998,Gas_CC,Gas,CC,6112,CO,40.2461,-104.8742,WECC,PSCO,Fort St Vrain CC1c,,,4,1.6,-1,13.25012,13.25012,12763.9554,41.73248,1,1.484,208,112,1004.28454,24.1998,6.4466,24.2004,6.8512,,,,,,,,,,15947,fortstvraincc1c,,70408,ST.VR_4,Existing,PSCO,RM_PSCO,
Rocky Mountain Energy Center,STG1,334.9,290,301,64,OP,2004,Gas_CC,Gas,CC,55835,CO,40.0908,-104.5953,WECC,PSCO,Rocky Mtn CC1b,,,8,2,-1,17.105,17.105,27096.11,74.64,1,1.8,312.5,122.5,974.2799,110.5,6.154,79.5,8.5,,,,,,,,,,16047,rockymtncc1b,,70589,RMEC2,Existing,PSCO,RM_PSCO,
High Desert Power Plant,STG1,333,305.3,310,60,OP,2003,Gas_CC,Gas,CC,55518,CA,34.5953,-117.3647,WECC,CISO,High Desert CC1c,,,6,2,-1,15.94998,15.94998,20692.87,63.8,1,2.1,267,166.667,1230.158,33.444,6.017,33.445,6.723,,,,,,,,,,15976,highdesertcc1c,,29003,HIDEDCT1,Existing,CISC,CA_CISO,
Higgins Generating Station,ST1,332.4,266,283,110,OP,2004,Gas_CC,Gas,CC,55687,NV,35.6139,-115.3561,WECC,NEVP,Higgins CC1b,,,6,2,-1,19.242,19.242,24963.8,76.968,1,2.1,320.7,133.87,1013.333,48.68,5.515,60.85,6.535,,,,,,,,,,15973,higginscc1b,,18409,HIGGINS1,Existing,NEVP,SW_NVE,
Chuck Lenzie Generating Station,ST1,329.8,253,265,45,OP,2006,Gas_CC,Gas,CC,55322,NV,36.383719,-114.921779,WECC,NEVP,C Lenzie CC2b,,,6,2,-1,17.55,17.55,22768.67,70.2,1,2.1,300,135,1052.064,37.667,5.584,37.666,6.092,,,,,,,,,,15917,clenziecc2b,,18435,LENZIE 5,Existing,NEVP,SW_NVE,
Chuck Lenzie Generating Station,ST2,329.8,253,265,45,OP,2006,Gas_CC,Gas,CC,55322,NV,36.383719,-114.921779,WECC,NEVP,C Lenzie CC2b,,,6,2,-1,17.55,17.55,22768.67,70.2,1,2.1,300,135,1052.064,37.667,5.584,37.666,6.092,,,,,,,,,,15917,clenziecc2b,,18435,LENZIE 5,Existing,NEVP,SW_NVE,
Clines Corners Wind Farm LLC,1,325,325,325,70,OP,2021,Wind,,WT,64054,NM,34.35655,-105.43676,WECC,PNM,,,,,,,,,,,,,,,,,,,,,,,,,,,,,,,,,,,,,
Mesquite Generating Station Block 2,ST2,321,300,300,110,OP,2003,Gas_CC,Gas,CC,55481,AZ,33.345047,-112.864227,WECC,SRP,Mesquite CC2b,,,6,2,-1,18.03,18.03,23391.4,72.12,1,2.1,312,160,1183.8,27.167,5.579,27.166,6.062,,,,,,,,,,16011,mesquitecc2b,,15168,MES-CT6,Existing,TH_PV,SW_TH_PV,
Mesquite Generating Station Block 1,ST1,321,300,300,90,OP,2003,Gas_CC,Gas,CC,58557,AZ,33.345,-112.864167,WECC,SRP,Mesquite CC1b,,,6,2,-1,18.27,18.27,23702.77,73.08,1,2.1,322.5,162.5,1173.815,26.667,5.479,26.666,6.02,,,,,,,,,,16009,mesquitecc1b,,15165,MES-CT2,Existing,TH_PV,SW_TH_PV,
Grays Harbor Energy Facility,ST1,317.1,291,291,100,OP,2008,Gas_CC,Gas,CC,7999,WA,46.9692,-123.48,WECC,BPAT,Grays Harbor CC1b,,,6,2,-1,19.71,19.71,25570.96,78.84,1,2.1,322.5,172.5,1245.647,29.167,5.565,29.166,5.958,,,,,,,,,,15961,graysharborcc1b,,47597,GRAYS_HRB_G2,Existing,BPAT,NW_BPAT,
Arlington Valley Energy Facility,STG1,317,255,255,55,OP,2002,Gas_CC,Gas,CC,55282,AZ,33.3417,-112.8897,WECC,DEAA,Arlington Valley CC1b,,,6,2,-1,18.6,18.6,24130.9,74.4,1,2.1,300,150,1103.901,33.333,5.573,33.334,5.947,,,,,,,,,,15904,arlingtonvalleycc1b,,15146,ARL-CT2,Existing,TH_PV,SW_TH_PV,
Lake Side Power Plant,ST2,316,273,281,0,OP,2014,Gas_CC,Gas,CC,56237,UT,40.331667,-111.754167,WECC,PACE,Lake Side CC2b,,,6,2,-1,17.4915,17.4915,22692.77,69.966,1,2.1,302.5,119.936,959.7112,46.2045,5.39,46.205,5.86,,,,,,,,,,15990,lakesidecc2b,,67908,LAKSDST2,Existing,PAUT,BS_PACE,
Santan,ST5S,314.5,280,318,60,OP,2005,Gas_CC,Gas,CC,8068,AZ,33.3325,-111.7503,WECC,SRP,Santan CC5b,,,6,2,-1,10.68428571,10.68428571,13861.36429,42.73714286,1,2.1,179.5357143,102.6521429,874.6335714,18.91814286,6.011142857,25.19714286,6.616714286,,,,,,,,,,16051,santancc5b,,15928,SANTN 5B,Existing,SRP,SW_SRP,
Cholla,3,312.3,271,271,75,OP,1980,Coal,Coal,CT,113,AZ,34.9394,-110.3033,WECC,AZPS,,,,,,,,,,,,,,,,,,,,,,,,,,,,,,,,,,,,,
Port Westward,1,312,256.2,267.9,135,OP,2007,Gas_CC,Gas,CT,56227,OR,46.17894,-123.172039,WECC,PGE,,,,,,,,,,,,,,,,,,,,,,,,,,,,,,,,,,,,,
Tracy,10,312,285,301,50,OP,2008,Gas_CC,Gas,CC,2336,NV,39.5625,-119.525,WECC,NEVP,Tracy NV CC2b,,,3.833333333,1.5,-1,10.52683333,10.52683333,10965.29933,198.7346667,1,1.28,154.1666667,73.83333333,693.9813667,22.7555,7.602833333,30.41116667,8.346833333,,,,,,,,,,16065,tracynvcc2b,,64953,TRACY W9,Existing,SPPC,SW_NVE,
AES Alamitos LLC,4,310,335,335,20,OP,1962,Gas_SC,Gas,CT,315,CA,33.7688,-118.1009,WECC,CISO,,,,,,,,,,,,,,,,,,,,,,,,,,,,,,,,,,,,,
AES Alamitos LLC,3,310,332,332,10,OP,1961,Gas_SC,Gas,CT,315,CA,33.7688,-118.1009,WECC,CISO,,,,,,,,,,,,,,,,,,,,,,,,,,,,,,,,,,,,,
Delta Energy Center,STG1,306,263.1,287.6,80,OP,2002,Gas_CC,Gas,CC,55333,CA,38.0169,-121.8439,WECC,CISO,Delta EC CC1c,,,6,2,-1,16.14,16.14,20939.39,64.56,1,2.1,280,129.886,1046.513,50.038,5.426,50.038,5.899,,,,,,,,,,15936,deltaeccc1c,,33110,DEC CTG3,Existing,CIPB,CA_CISO,
Currant Creek,ST1,305,254,269,130,OP,2006,Gas_CC,Gas,CC,56102,UT,39.82144,-111.89345,WECC,PACE,Currant Creek CC1b,,,6,2,-1,15.891,15.891,20616.35,63.564,1,2.1,277.5,136,1035.962,27.933,5.583,27.934,6.016,,,,,,,,,,15931,currantcreekcc1b,,65392,CURRNTC2,Existing,PAUT,BS_PACE,
Griffith Energy LLC,STG,301.8,276,276,50,OP,2002,Gas_CC,Gas,CC,55124,AZ,35.054029,-114.133272,WECC,GRIF,Griffith CC1b,,,6,2,-1,17.724,17.724,22994.41,70.896,1,2.1,299,132.5,989.7137,36.5,5.286,36.5,5.984,,,,,,,,,,15963,griffithcc1b,,19312,GRIFFTH2,Existing,WALC,SW_WALC,
Carty Generating Station,GEN1,300,248.1,280.6,101.6,OP,2016,Gas_CC,Gas,CT,58503,OR,45.698611,-119.813056,WECC,PGE,,,,,,,,,,,,,,,,,,,,,,,,,,,,,,,,,,,,,
Luna Energy Facility,STG1,300,258,282,50,OP,2006,Gas_CC,Gas,CC,55343,NM,32.299349,-107.7834,WECC,PNM,Luna CC1b,,,6,2,-1,17.88,17.88,23196.8,71.52,1,2.1,300,137.5,1085.187,34.333,5.266,34.334,6.173,,,,,,,,,,16005,lunacc1b,,10395,LEF_G2,Existing,PNM,SW_PNM,
Dynegy Moss Landing Power Plant Hybrid,BAT1,300,300,300,0.2,OP,2021,Battery,,BA,260,CA,36.804837,-121.782241,WECC,CISO,,,,,,,,,,,,,,,,,,,,,,,,,,,,,,,,,,,,,
"Bronco Plains Wind, LLC",WBOPL,300,299,299,1,OP,2020,Wind,,WT,63803,CO,39.088845,-103.025074,WECC,PSCO,,,,,,,,,,,,,,,,,,,,,,,,,,,,,,,,,,,,,
El Cabo Wind,1,298,298,298,0,OP,2017,Wind,,WT,58098,NM,34.651111,-105.461667,WECC,PNM,,,,,,,,,,,,,,,,,,,,,,,,,,,,,,,,,,,,,
Rawhide,1,293.6,280,280,100,OP,1984,Coal,Coal,CT,6761,CO,40.860905,-105.021207,WECC,PSCO,Rawhide 1,ST-Col,FALSE,48,108,-1,5.6,5.6,41513.78,2612.4,1,1.79,280,135,1383.264,29,9.222,43.5,9.444,72.5,9.8,0,0,0,0,0,0,rawhide1,13802,rawhide1,CO-6761-1,78011,RAWHIDE,Existing,PSCO,RM_PSCO,6761
Otay Mesa Generating Project,3-Jan,290.7,265.4,275.3,50,OP,2009,Gas_CC,Gas,CC,55345,CA,32.581481,-116.914969,WECC,CISO,Otay Mesa CC1b,,,6,2,-1,17.13,17.13,22223.78,68.52,1,2.1,305,117.13,934.1575,45.123,5.371,45.124,5.839,,,,,,,,,,16031,otaymesacc1b,,22606,OTAYMGT2,Existing,CISD,CA_CISO,
South Hurlburt Wind LLC,SOUTH,290,290,290,0,OP,2012,Wind,,WT,57549,OR,45.706262,-120.079987,WECC,BPAT,,,,,,,,,,,,,,,,,,,,,,,,,,,,,,,,,,,,,
Horseshoe Bend Wind LLC,HORSE,290,290,290,0,OP,2012,Wind,,WT,57550,OR,45.58555,-120.008249,WECC,BPAT,,,,,,,,,,,,,,,,,,,,,,,,,,,,,,,,,,,,,
North Valmy,2,289.8,268,268,90,OP,1985,Coal,Coal,CT,8224,NV,40.881317,-117.151605,WECC,NEVP,,,,,,,,,,,,,,,,,,,,,,,,,,,,,,,,,,,,,
La Paloma Generating Plant,GEN3,289,252,266,62,OP,2003,Gas_CC,Gas,CC,55151,CA,35.2956,-119.5919,WECC,CISO,LaPaloma3,CC F_GT24,FALSE,6,2,-1,13.74,13.74,17825.73,54.96,1,2.1,258.4,140,1047.131,39.467,6.27,39.466,6.366,39.467,6.462,0,0,0,0,0,0,lapaloma3,1117,lapaloma3,CA-55151-GEN3,35072,LAPLM_G3,Existing,CIPV,CA_CISO,55151
La Paloma Generating Plant,GEN2,289,252,266,65,OP,2003,Gas_CC,Gas,CC,55151,CA,35.2956,-119.5919,WECC,CISO,LaPaloma2,CC F_GT24,FALSE,6,2,-1,13.86,13.86,17981.41,55.44,1,2.1,258.4,140,1048.873,118.4,6.289,0,0,0,0,0,0,0,0,0,0,lapaloma2,1116,lapaloma2,CA-55151-GEN2,35071,LAPLM_G2,Existing,CIPV,CA_CISO,55151
La Paloma Generating Plant,GEN4,289,253,267,62,OP,2003,Gas_CC,Gas,CC,55151,CA,35.2956,-119.5919,WECC,CISO,LaPaloma4,CC F_GT24,FALSE,6,2,-1,13.92,13.92,18059.25,55.68,1,2.1,258.4,140,1043.199,39.467,6.157,39.466,6.197,39.467,6.237,0,0,0,0,0,0,lapaloma4,1118,lapaloma4,CA-55151-GEN4,35073,LAPLM_G4,Existing,CIPV,CA_CISO,55151
La Paloma Generating Plant,GEN1,289,253,267,65,OP,2003,Gas_CC,Gas,CC,55151,CA,35.2956,-119.5919,WECC,CISO,LaPaloma1,CC F_GT24,FALSE,6,2,-1,14.04,14.04,18214.93,56.16,1,2.1,256.8,140,1037.609,116.8,6.248,0,0,0,0,0,0,0,0,0,0,lapaloma1,1115,lapaloma1,CA-55151-GEN1,35070,LAPLM_G1,Existing,CIPV,CA_CISO,55151
Harquahala Generating Project,CTG2,281.7,226.6,247.8,137.4,OP,2004,Gas_CC,Gas,CT,55372,AZ,33.47596,-113.113434,WECC,HGMA,,,,,,,,,,,,,,,,,,,,,,,,,,,,,,,,,,,,,
Harquahala Generating Project,CTG1,281.7,239.9,244,135.4,OP,2004,Gas_CC,Gas,CT,55372,AZ,33.47596,-113.113434,WECC,HGMA,,,,,,,,,,,,,,,,,,,,,,,,,,,,,,,,,,,,,
Harquahala Generating Project,CTG3,281.7,226.2,245.2,135.3,OP,2004,Gas_CC,Gas,CT,55372,AZ,33.47596,-113.113434,WECC,HGMA,,,,,,,,,,,,,,,,,,,,,,,,,,,,,,,,,,,,,
Los Medanos Energy Center,STG3,280.5,237,244,80,OP,2001,Gas_CC,Gas,CC,55217,CA,38.030071,-121.873004,WECC,CISO,Los Medanos EC CC1b,,,6,2,-1,17.61,17.61,22846.51,70.44,1,2.1,302,180,1296.701,32.5,5.749,32.5,6.054,,,,,,,,,,16003,losmedanoseccc1b,,33111,LMECCT2,Existing,CIPB,CA_CISO,
North Valmy,1,277.2,254,254,90,OP,1981,Coal,Coal,CT,8224,NV,40.881317,-117.151605,WECC,NEVP,,,,,,,,,,,,,,,,,,,,,,,,,,,,,,,,,,,,,
Hayden,2,275.4,262,262,120,OP,1976,Coal,Coal,CT,525,CO,40.4856,-107.185,WECC,PSCO,Hayden 2,ST-Col,FALSE,48,108,-1,5.72,5.72,42403.36,2444.46,1,1.79,262,120,1336.677,28.4,9.927,42.6,10.178,71,10.581,0,0,0,0,0,0,hayden2,14009,hayden2,CO-525-2,79041,HAYDEN2,Existing,WACM,RM_WACM,525
Desert Basin,STG,272.1,253,269,70,OA,2001,Gas_CC,Gas,CC,55129,AZ,32.9042,-111.7889,WECC,SRP,Desert Basin CC1b,,,6,2,-1,17.733,17.733,23006.08,70.932,1,2.1,307.5,180,1295.273,27,6.174,27,6.565,,,,,,,,,,15938,desertbasincc1b,,15141,DBG-CT2,Existing,SRP,SW_SRP,
Tecolote Wind LLC,1,272,272,272,70,OP,2021,Wind,,WT,64066,NM,34.36,-105.44,WECC,PNM,,,,,,,,,,,,,,,,,,,,,,,,,,,,,,,,,,,,,
Gila River Power Block 1,ST9,271,242,249,70,OP,2003,Gas_CC,Gas,CC,59338,AZ,32.975,-112.694444,WECC,SRP,Gila River CC1b,,,6,2,-1,17.7,17.7,22963.27,70.8,1,2.1,299,170,1262.326,31,5.085,31,5.657,,,,,,,,,,15953,gilarivercc1b,,159972,GIL-CT1B,Existing,SRP,SW_SRP,
Gila River Power Block 2,ST10,271,242,249,70,OP,2003,Gas_CC,Gas,CC,60768,AZ,32.975,-112.694444,WECC,SRP,Gila River CC2b,,,6,2,-1,16.5,16.5,21406.44,66,1,2.1,300,170,1246.015,29.667,5.079,29.666,5.789,,,,,,,,,,15955,gilarivercc2b,,159974,GIL-CT2B,Existing,SRP,SW_SRP,
Gila River Power Block 4,ST12,271,242,249,70,OP,2003,Gas_CC,Gas,CC,55306,AZ,32.975,-112.6944,WECC,SRP,Gila River CC3b,,,6,2,-1,16.5,16.5,21406.44,66,1,2.1,305,170,1252.629,31,5.145,31,5.761,,,,,,,,,,15957,gilarivercc3b,,159978,GIL-CT4B,Existing,SRP,SW_SRP,
Gila River Power Block 3,ST11,271,242,249,70,OP,2003,Gas_CC,Gas,CC,59784,AZ,32.975,-112.6944,WECC,TEPC,Gila River CC4b,,,6,2,-1,18,18,23352.48,72,1,2.1,305,170,1259.478,29,5.294,29,5.611,,,,,,,,,,15959,gilarivercc4b,,159976,GIL-CT3B,Existing,SRP,SW_SRP,
Castaic,1,271,270.5,270.5,10,OA,1973,Hydro,,PS,392,CA,34.587237,-118.656638,WECC,LDWP,,,,,,,,,,,,,,,,,,,,,,,,,,,,,,,,,,,,,
Castaic,2,271,270.5,270.5,10,OP,1974,Hydro,,PS,392,CA,34.587237,-118.656638,WECC,LDWP,,,,,,,,,,,,,,,,,,,,,,,,,,,,,,,,,,,,,
Castaic,3,271,270.5,270.5,10,OP,1976,Hydro,,PS,392,CA,34.587237,-118.656638,WECC,LDWP,,,,,,,,,,,,,,,,,,,,,,,,,,,,,,,,,,,,,
Castaic,4,271,270.5,270.5,10,OP,1977,Hydro,,PS,392,CA,34.587237,-118.656638,WECC,LDWP,,,,,,,,,,,,,,,,,,,,,,,,,,,,,,,,,,,,,
Castaic,5,271,270.5,270.5,10,OA,1977,Hydro,,PS,392,CA,34.587237,-118.656638,WECC,LDWP,,,,,,,,,,,,,,,,,,,,,,,,,,,,,,,,,,,,,
Castaic,6,271,270.5,270.5,10,OP,1978,Hydro,,PS,392,CA,34.587237,-118.656638,WECC,LDWP,,,,,,,,,,,,,,,,,,,,,,,,,,,,,,,,,,,,,
Silverhawk,ST1,270.3,260,268,45,OP,2004,Gas_CC,Gas,CC,55841,NV,36.4078,-114.9606,WECC,NEVP,Silverhawk CC1b,,,6,2,-1,16.98,16.98,22029.17,67.92,1,2.1,285,152.5,1166.331,32.667,5.942,32.666,6.548,,,,,,,,,,16055,silverhawkcc1b,,18402,SLHWKG2,Existing,NEVP,SW_NVE,
Tucannon River Wind Farm,1,266.8,266.8,266.8,0,OP,2014,Wind,,WT,58571,WA,46.421111,-118.026944,WECC,PGE,,,,,,,,,,,,,,,,,,,,,,,,,,,,,,,,,,,,,
Ocotillo Express LLC,WTG,265.4,265.4,265.4,265.4,OP,2012,Wind,,WT,57514,CA,32.752778,-116.044722,WECC,CISO,,,,,,,,,,,,,,,,,,,,,,,,,,,,,,,,,,,,,
North Hurlburt Wind LLC,NORTH,265,265,265,0,OP,2012,Wind,,WT,57526,OR,45.731611,-120.083466,WECC,BPAT,,,,,,,,,,,,,,,,,,,,,,,,,,,,,,,,,,,,,
Hermiston Power Partnership,STG1,264.4,247,258,90,OP,2002,Gas_CC,Gas,CC,55328,OR,45.794046,-119.313323,WECC,GRID,Hermiston Pwr CC1b,,,6,2,-1,19.44,19.44,25220.68,77.76,1,2.1,324,180,1337.254,30.833,5.625,30.834,6.168,,,,,,,,,,15971,hermistonpwrcc1b,,47640,HPP G2,Existing,BPAT,NW_BPAT,
Valley (CA),8,264.4,209,209,60,OP,2003,Gas_CC,Gas,CC,408,CA,34.244991,-118.391327,WECC,LDWP,Valley CC1b,,,4.333333333,1.666666667,-1,24.68,24.68,14195.40933,45.76666667,1,1.55,192.6666667,116.7373333,921.1415667,21.19833333,8.251,25.17566667,8.516333333,,,,,,,,,,16067,valleycc1b,,26149,VALLEY7G,Existing,LDWP,CA_LDWP,
Haynes,8,264.3,235,250,73,OP,2005,Gas_CC,Gas,CC,400,CA,33.764741,-118.09913,WECC,LDWP,Haynes 12CC12CC444,,,2.909090909,1.454545455,-1,55.23818182,55.23818182,9628.045636,387.8618182,1,0.870909091,188.4545455,76.89090909,841.7288,30.988,7.053181818,43.29690909,7.178181818,,,,,,,,,,17922,haynes12cc12cc444,,26026,HAYNES1G,Future-Planned,LDWP,CA_LDWP,
Sunrise Power LLC,STG,264,245,270,50.7,OP,2003,Gas_CC,Gas,CC,55182,CA,35.2097,-119.585,WECC,CISO,Sunrise CC1b,,,6,2,-1,16.95,16.95,21990.25,67.8,1,2.1,297.5,157.5,1147.298,27.167,5.856,27.166,6.157,,,,,,,,,,16059,sunrisecc1b,,35075,TEXSUN2G,Existing,CIPV,CA_CISO,
Windy Flats Wind Project,GEN1,262.2,262.2,262.2,0,OP,2009,Wind,,WT,57159,WA,45.7269,-120.8339,WECC,BPAT,,,,,,,,,,,,,,,,,,,,,,,,,,,,,,,,,,,,,
Dworshak,3,259,259,220,220,OP,1974,Hydro,,HY,840,ID,46.5143,-116.2977,WECC,BPAT,,,,,,,,,,,,,,,,,,,,,,,,,,,,,,,,,,,,,
Naughton,2,256,201,201,28,OP,1968,Coal,Coal,CT,4162,WY,41.7581,-110.5983,WECC,PACE,Naughton2,ST-Col,FALSE,48,108,-1,7.035,7.035,23515.28,1875.33,1,2.4,201,53.6,691.9485,29.48,9.732,44.22,10.156,73.7,10.833,0,0,0,0,0,0,naughton2,11093,naughton2,WY-4162-2,66060,NAUGT G2,Existing,PAWY,BS_PACE,4162
Russell City Energy Center,STG1,255,245,248,65,OP,2013,Gas_CC,Gas,CC,56467,CA,37.63466,-122.13381,WECC,CISO,Russell City CC1b,,,6,2,-1,18.6,18.6,24130.9,74.4,1,2.1,315,192.5,1381.045,40.833,5.737,40.834,6.528,,,,,,,,,,16049,russellcitycc1b,,35305,RUSCTYECCT2,Existing,CIPB,CA_CISO,
Cherokee,7,255,240,248,104,OP,2015,Gas_CC,Gas,CC,469,CO,39.807275,-104.964548,WECC,PSCO,Cherokee CC1b,,,21.33333333,37.33333333,-1,15.505,15.505,32419.14333,1825.226667,1,2,329.3333333,175,1346.736333,44.222,6.981333333,44.22266667,7.223,,,,,,,,,,15921,cherokeecc1b,,70147,CHEROKEE7,Existing,PSCO,RM_PSCO,
Dave Johnston,3,255,220,220,100,OP,1964,Coal,Coal,CT,4158,WY,42.8378,-105.7769,WECC,PACE,Dave_Johnston_3,ST-Col,FALSE,6,12,-1,4.4,4.4,32617.97,2052.6,1,1.79,220,120,1325.252,20,10.167,30,10.38,50,10.72,0,0,0,0,0,0,davejohnston3,3634,davejohnston3,WY-4158-3,65440,DAVEJON3,Existing,PAWY,BS_PACE,4158
AV Solar Ranch One,AVSR,253,241.5,241.5,0,OP,2014,Solar,Solar,PV,57378,CA,34.780278,-118.42444,WECC,CISO,,,,,,,,,,,,,,,,,,,,,,,,,,,,,,,,,,,,,
Apex Generating Station,STG1,252.6,195.2,213.4,55,OP,2003,Gas_CC,Gas,CC,55514,NV,36.415999,-114.960916,WECC,NEVP,Apex CC1b,,,6,2,-1,16.161,16.161,20966.63,64.644,1,2.1,275,145,1071.698,35.167,5.975,35.166,6.15,,,,,,,,,,15900,apexcc1b,,26233,APEXGT1B,Existing,LDWP,CA_LDWP,
Mount Signal Solar Farm V,MTSG3,252.3,252.3,252.3,0,OP,2018,Solar,Solar,PV,61202,CA,32.678805,-115.56721,WECC,CISO,,,,,,,,,,,,,,,,,,,,,,,,,,,,,,,,,,,,,
Cedar Point Wind,1-139,252,252,252,0,OP,2011,Wind,,WT,57315,CO,39.421787,-103.67814,WECC,PSCO,,,,,,,,,,,,,,,,,,,,,,,,,,,,,,,,,,,,,
"Copper Mountain Solar 5, LLC",CM5-1,252,250,250,0,OP,2021,Solar,Solar,PV,63504,NV,35.776286,-114.973676,WECC,NEVP,,,,,,,,,,,,,,,,,,,,,,,,,,,,,,,,,,,,,
Lake Side Power Plant,ST01,251,209,215,140,OP,2007,Gas_CC,Gas,CC,56237,UT,40.331667,-111.754167,WECC,PACE,Lake Side CC2b,,,6,2,-1,17.4915,17.4915,22692.77,69.966,1,2.1,302.5,119.936,959.7112,46.2045,5.39,46.205,5.86,,,,,,,,,,15990,lakesidecc2b,,67908,LAKSDST2,Existing,PAUT,BS_PACE,
Ekola Flats,1,250.9,250.9,250.9,0,OP,2020,Wind,,WT,62591,WY,41.932405,-106.35843,WECC,PACE,,,,,,,,,,,,,,,,,,,,,,,,,,,,,,,,,,,,,
Moapa Southern Paiute,1,250,250,250,0,OP,2016,Solar,Solar,PV,57859,NV,36.52995,-114.770308,WECC,NEVP,,,,,,,,,,,,,,,,,,,,,,,,,,,,,,,,,,,,,
Golden West Power Partners LLC,GW1,250,250,250,0,OP,2015,Wind,,WT,59974,CO,38.935,-104.212,WECC,PSCO,,,,,,,,,,,,,,,,,,,,,,,,,,,,,,,,,,,,,
Aquamarine,AQUAM,250,250,250,0,OP,2021,Solar,Solar,PV,62547,CA,36.189722,-119.904166,WECC,CISO,,,,,,,,,,,,,,,,,,,,,,,,,,,,,,,,,,,,,
Athos Solar Project,IPAT1,250,250,250,0,OP,2022,Solar,Solar,PV,63300,CA,33.751283,-115.35499,WECC,CISO,,,,,,,,,,,,,,,,,,,,,,,,,,,,,,,,,,,,,
Gateway Energy Storage System,GTWAY,250,250,250,0,OP,2020,Battery,,BA,63834,CA,32.570556,-116.910556,WECC,CISO,,,,,,,,,,,,,,,,,,,,,,,,,,,,,,,,,,,,,
Cedar Creek II,1,248.3,248.3,248.3,1.4,OP,2011,Wind,,WT,57210,CO,40.9475,-103.783889,WECC,PSCO,,,,,,,,,,,,,,,,,,,,,,,,,,,,,,,,,,,,,
River Road Gen Plant,1,248,220,248,205,OP,1997,Gas_CC,Gas,CC,7605,WA,45.6497,-122.7256,WECC,BPAT,River_Road,CC F_7FA,FALSE,6,2,-1,14.88,14.88,19304.72,59.52,1,2.1,265,122.928,1019.16,142.072,6.07,0,0,0,0,0,0,0,0,0,0,riverroad,2063,riverroad,WA-7605-1,47216,RVR RD C,Existing,BPAT,NW_BPAT,7605
Crockett Cogen Project,GE1,247.4,247.4,247.4,120,OP,1995,Gas_CC,Gas,CC,55084,CA,38.0569,-122.2161,WECC,CISO,Crockett_Cogen,CC F_7FA,FALSE,4,2,-1,24,24,16489.19,57.6,1,0.29,240,230,2005.417,10,6.489,0,0,0,0,0,0,0,0,0,0,crockettcogen,1854,crockettcogen,CA-55084-GE1,32900,CRCKTCOG,Existing,CIPB,CA_CISO,55084
Front Range Power Plant,3,246.5,190,200,45,OP,2003,Gas_CC,Gas,CC,55283,CO,38.6281,-104.7069,WECC,WACM,Front Range CC1b,,,6,2,-1,14.73,14.73,19110.11,58.92,1,2.1,250,96.255,786.7819,37.082,5.504,37.081,5.984,,,,,,,,,,15949,frontrangecc1b,,78518,FTRNG2CC,Existing,PSCO,RM_PSCO,
TS Power Plant,1,242,218.4,219.2,80,OP,2008,Coal,Coal,CT,56224,NV,40.7461,-116.5297,WECC,NEVP,Newmont TS Power,,,48,108,-1,4.52,4.52,33507.55,2045.14,1,1.79,219.2,80,807.9254,27.84,8.584,41.76,8.843,,,,,,,,,,13768,newmonttspower,,64855,NEWMONT,Existing,SPPC,SW_NVE,
Bighorn Solar 1,COBH1,240,240,240,0,OP,2021,Solar,Solar,PV,63770,CO,38.207518,-104.596708,WECC,PSCO,,,,,,,,,,,,,,,,,,,,,,,,,,,,,,,,,,,,,
Pryor Mountain Wind,1,239.8,239.8,239.8,1,OP,2021,Wind,,WT,59757,MT,45.165525,-108.693138,WECC,PACE,,,,,,,,,,,,,,,,,,,,,,,,,,,,,,,,,,,,,
Boundary,55,239.4,232,232,0,OP,1985,Hydro,,HY,6433,WA,48.987111,-117.347847,WECC,SCL,,,,,,,,,,,,,,,,,,,,,,,,,,,,,,,,,,,,,
Boundary,56,239.4,232,232,0,OP,1986,Hydro,,HY,6433,WA,48.987111,-117.347847,WECC,SCL,,,,,,,,,,,,,,,,,,,,,,,,,,,,,,,,,,,,,
AES Huntington Beach Energy Project,1S,237.2,220,236,60,OP,2020,Gas_CC,Gas,CC,62116,CA,33.645618,-117.979372,WECC,CISO,Huntington Beach CC1b,,,7,2,-1,17.71,17.71,14066.165,38.76,1,1.8,-1,-1,993.045,0,0,0,0,,,,,,,,,,15978,huntingtonbeachcc1b,,24581,HUNTBCH CTG2,Existing,CISC,CA_CISO,
South Point Energy Center,A,236,180,193,105,OP,2001,Gas_CC,Gas,CT,55177,AZ,34.8678,-114.5317,WECC,WALC,South Point CC1b,,,6,2,-1,16.5,16.5,21406.44,66,1,2.1,280,160,1167.942,30,5.763,30,6.122,,,,,,,,,,16057,southpointcc1b,,19318,SOPOINT2,Existing,WALC,SW_WALC,
South Point Energy Center,ST1,236,190,200,60,OP,2001,Gas_CC,Gas,CC,55177,AZ,34.8678,-114.5317,WECC,WALC,South Point CC1b,,,6,2,-1,16.5,16.5,21406.44,66,1,2.1,280,160,1167.942,30,5.763,30,6.122,,,,,,,,,,16057,southpointcc1b,,19318,SOPOINT2,Existing,WALC,SW_WALC,
South Point Energy Center,B,236,180,193,105,OP,2001,Gas_CC,Gas,CT,55177,AZ,34.8678,-114.5317,WECC,WALC,South Point CC1b,,,6,2,-1,16.5,16.5,21406.44,66,1,2.1,280,160,1167.942,30,5.763,30,6.122,,,,,,,,,,16057,southpointcc1b,,19318,SOPOINT2,Existing,WALC,SW_WALC,
Metcalf Energy Center,STG1,235,202.1,220.9,70,OP,2005,Gas_CC,Gas,CC,55393,CA,37.2207,-121.7457,WECC,CISO,Metcalf CC1b,,,6,2,-1,17.25,17.25,22379.46,69,1,2.1,292.75,168.329,1237.038,38.2485,5.786,44.914,6.418,,,,,,,,,,16013,metcalfcc1b,,35882,MEC CTG2,Existing,CIPB,CA_CISO,
Chehalis Generating Facility,CT1,234,160,170,100,OP,2003,Gas_CC,Gas,CT,55662,WA,46.6225,-122.9131,WECC,BPAT,Chehalis CC1b,,,6,2,-1,17.31,17.31,22457.3,69.24,1,2.1,257.5,155,1177.035,34.167,4.946,34.166,5.664,,,,,,,,,,15919,chehaliscc1b,,47589,CHEH G2,Existing,BPAT,NW_BPAT,
Chehalis Generating Facility,CT2,234,160,170,100,OP,2003,Gas_CC,Gas,CT,55662,WA,46.6225,-122.9131,WECC,BPAT,Chehalis CC1b,,,6,2,-1,17.31,17.31,22457.3,69.24,1,2.1,257.5,155,1177.035,34.167,4.946,34.166,5.664,,,,,,,,,,15919,chehaliscc1b,,47589,CHEH G2,Existing,BPAT,NW_BPAT,
Dynegy Moss Landing Power Plant Hybrid,CT2B,233,165,165,80,OP,2002,Gas_CC,Gas,CT,260,CA,36.804837,-121.782241,WECC,CISO,Moss Landing CC2b,,,6,2,-1,14.01,14.01,18176.01,56.04,1,2.1,233.5,75,571.5,45,5.6525,45,5.94,,,,,,,,,,16017,mosslandingcc2b,,36225,DUKMOSS5,Existing,CIPB,CA_CISO,
Dynegy Moss Landing Power Plant Hybrid,CT2A,233,165,165,80,OP,2002,Gas_CC,Gas,CT,260,CA,36.804837,-121.782241,WECC,CISO,Moss Landing CC2b,,,6,2,-1,14.01,14.01,18176.01,56.04,1,2.1,233.5,75,571.5,45,5.6525,45,5.94,,,,,,,,,,16017,mosslandingcc2b,,36225,DUKMOSS5,Existing,CIPB,CA_CISO,
Dynegy Moss Landing Power Plant Hybrid,ST2,233,180,180,60,OP,2002,Gas_CC,Gas,CC,260,CA,36.804837,-121.782241,WECC,CISO,Moss Landing CC2b,,,6,2,-1,14.01,14.01,18176.01,56.04,1,2.1,233.5,75,571.5,45,5.6525,45,5.94,,,,,,,,,,16017,mosslandingcc2b,,36225,DUKMOSS5,Existing,CIPB,CA_CISO,
Dynegy Moss Landing Power Plant Hybrid,CT1A,233,165,165,80,OP,2002,Gas_CC,Gas,CT,260,CA,36.804837,-121.782241,WECC,CISO,Moss Landing CC2b,,,6,2,-1,14.01,14.01,18176.01,56.04,1,2.1,233.5,75,571.5,45,5.6525,45,5.94,,,,,,,,,,16017,mosslandingcc2b,,36225,DUKMOSS5,Existing,CIPB,CA_CISO,
Dynegy Moss Landing Power Plant Hybrid,CT1B,233,165,165,80,OP,2002,Gas_CC,Gas,CT,260,CA,36.804837,-121.782241,WECC,CISO,Moss Landing CC2b,,,6,2,-1,14.01,14.01,18176.01,56.04,1,2.1,233.5,75,571.5,45,5.6525,45,5.94,,,,,,,,,,16017,mosslandingcc2b,,36225,DUKMOSS5,Existing,CIPB,CA_CISO,
Dynegy Moss Landing Power Plant Hybrid,ST1,233,180,180,60,OP,2002,Gas_CC,Gas,CC,260,CA,36.804837,-121.782241,WECC,CISO,Moss Landing CC2b,,,6,2,-1,14.01,14.01,18176.01,56.04,1,2.1,233.5,75,571.5,45,5.6525,45,5.94,,,,,,,,,,16017,mosslandingcc2b,,36225,DUKMOSS5,Existing,CIPB,CA_CISO,
AES Alamitos Energy Center,1B,231,194,231,0,OP,2020,Gas_CC,Gas,CT,62115,CA,33.767229,-118.100194,WECC,CISO,Alamitos CC1b,,,7,2,-1,17.6,17.6,13979.04,38.52,1,1.8,-1,-1,428.3646,0,0,0,0,,,,,,,,,,15898,alamitoscc1b,,24576,ALAMT CTG2,Existing,CISC,CA_CISO,
AES Huntington Beach Energy Project,1A,231,205,227,80,OP,2020,Gas_CC,Gas,CT,62116,CA,33.645618,-117.979372,WECC,CISO,Huntington Beach CC1b,,,7,2,-1,17.71,17.71,14066.165,38.76,1,1.8,-1,-1,993.045,0,0,0,0,,,,,,,,,,15978,huntingtonbeachcc1b,,24581,HUNTBCH CTG2,Existing,CISC,CA_CISO,
AES Alamitos Energy Center,1A,231,194,231,0,OP,2020,Gas_CC,Gas,CT,62115,CA,33.767229,-118.100194,WECC,CISO,Alamitos CC1b,,,7,2,-1,17.6,17.6,13979.04,38.52,1,1.8,-1,-1,428.3646,0,0,0,0,,,,,,,,,,15898,alamitoscc1b,,24576,ALAMT CTG2,Existing,CISC,CA_CISO,
AES Huntington Beach Energy Project,1B,231,205,227,80,OP,2020,Gas_CC,Gas,CT,62116,CA,33.645618,-117.979372,WECC,CISO,Huntington Beach CC1b,,,7,2,-1,17.71,17.71,14066.165,38.76,1,1.8,-1,-1,993.045,0,0,0,0,,,,,,,,,,15978,huntingtonbeachcc1b,,24581,HUNTBCH CTG2,Existing,CISC,CA_CISO,
Haynes,2,230,222,222,50,OP,1963,Gas_SC,Gas,CT,400,CA,33.764741,-118.09913,WECC,LDWP,Haynes 2,ST-NG,FALSE,4,2,-1,22.2,22.2,15252.5,1980.24,1,0.29,222,45,533.8341,35.4,8.652,53.1,8.855,88.5,9.18,0,0,0,0,0,0,haynes2,13594,haynes2,CA-400-2,26027,HAYNES2G,Existing,LDWP,CA_LDWP,400
Chehalis Generating Facility,CA,230,157,167,100,OP,2003,Gas_CC,Gas,CC,55662,WA,46.6225,-122.9131,WECC,BPAT,Chehalis CC1b,,,6,2,-1,17.31,17.31,22457.3,69.24,1,2.1,257.5,155,1177.035,34.167,4.946,34.166,5.664,,,,,,,,,,15919,chehaliscc1b,,47589,CHEH G2,Existing,BPAT,NW_BPAT,
Haynes,1,230,222,222,50,OP,1962,Gas_SC,Gas,CT,400,CA,33.764741,-118.09913,WECC,LDWP,Haynes 1,ST-NG,FALSE,4,2,-1,22.2,22.2,15252.5,1980.24,1,0.29,222,45,569.0797,35.4,8.497,53.1,9.011,88.5,9.835,0,0,0,0,0,0,haynes1,13593,haynes1,CA-400-1,26026,HAYNES1G,Existing,LDWP,CA_LDWP,400
McCoy Solar Energy Project Hybrid,MCST1,230,230,230,0,OP,2021,Battery,,BA,58462,CA,33.694722,-114.739722,WECC,CISO,,,,,,,,,,,,,,,,,,,,,,,,,,,,,,,,,,,,,
Sunlight Storage,SUNS1,230,230,230,1,OP,2022,Battery,,BA,65857,CA,33.803,-115.402,WECC,CISO,,,,,,,,,,,,,,,,,,,,,,,,,,,,,,,,,,,,,
Palomar Energy,STG,229,222,229,70,OP,2006,Gas_CC,Gas,CC,55985,CA,33.1197,-117.117778,WECC,CISO,Palomar CC1b,,,6,2,-1,16.86,16.86,21873.49,67.44,1,2.1,285,145,1086.134,39.667,5.718,39.666,6.078,,,,,,,,,,16033,palomarcc1b,,22263,PEN_CT2,Existing,CISD,CA_CISO,
Wild Horse,1,228.6,228.6,228.6,0,OP,2006,Wind,,WT,56322,WA,47.036269,-120.206494,WECC,PSEI,,,,,,,,,,,,,,,,,,,,,,,,,,,,,,,,,,,,,
Blythe Energy Inc,ST1,227,201,204,50,OP,2003,Gas_CC,Gas,CC,55295,CA,33.6157,-114.6865,WECC,CISO,Blythe CC1b,,,6,2,-1,14.7,14.7,19071.19,58.8,1,2.1,245,113.65,928.9688,43.783,5.504,43.784,5.984,,,,,,,,,,15909,blythecc1b,,29208,BLY1CT2,Existing,CISC,CA_CISO,
Elk Hills Power LLC,STG,225,213,219,40,OP,2003,Gas_CC,Gas,CC,55400,CA,35.280318,-119.470707,WECC,CISO,Elk Hills CC1b,,,6,2,-1,15.96,15.96,20705.87,63.84,1,2.1,272.5,217.5,1515.207,31.5,6.441,23.5,9.2,,,,,,,,,,15944,elkhillscc1b,,35077,ELKHIL2G,Existing,CIPV,CA_CISO,
Brownlee,5,225,199.6,225,0,OP,1980,Hydro,,HY,811,ID,44.8367,-116.8975,WECC,IPCO,,,,,,,,,,,,,,,,,,,,,,,,,,,,,,,,,,,,,
Blythe Mesa Solar II,IPBMS,223.6,223.6,223.6,0,OP,2022,Solar,Solar,PV,65053,CA,33.640813,-114.680261,WECC,CISO,,,,,,,,,,,,,,,,,,,,,,,,,,,,,,,,,,,,,
Harry Allen,7,223.5,206.8,196,45,OP,2011,Gas_CC,Gas,CC,7082,NV,36.430554,-114.902405,WECC,NEVP,Harry Allen CC1b,,,3.5,1.5,-1,40.2255,40.2255,11230.9795,194.382,1,1.275,167.5,106,931.599725,22.6665,6.91525,19.417,3.0225,,,,,,,,,,15967,harryallencc1b,,18427,HA CC2,Existing,NEVP,SW_NVE,
Cedar Creek Wind,1,221,221,221,0.1,OP,2007,Wind,,WT,56371,CO,40.8944,-104.0206,WECC,PSCO,,,,,,,,,,,,,,,,,,,,,,,,,,,,,,,,,,,,,
Klondike Windpower III,1,221,221,221,0,OP,2007,Wind,,WT,56468,OR,45.5836,-120.5042,WECC,AVRN,,,,,,,,,,,,,,,,,,,,,,,,,,,,,,,,,,,,,
"Grady Wind Energy Center, LLC",1,220.5,220.5,220.5,200,OP,2019,Wind,,WT,60317,NM,34.734142,-103.092227,WECC,PNM,,,,,,,,,,,,,,,,,,,,,,,,,,,,,,,,,,,,,
AES Huntington Beach LLC,2,218,225.8,225.8,20,OP,1958,Gas_SC,Gas,CT,335,CA,33.6439,-117.9792,WECC,CISO,,,,,,,,,,,,,,,,,,,,,,,,,,,,,,,,,,,,,
Scattergood,4,216.9,206,206,75,OP,2015,Gas_CC,Gas,CT,404,CA,33.918151,-118.427648,WECC,LDWP,Scattergood CC3,CC F_7F.05,FALSE,1,1,-1,30,30,17708.89,44,1,0.56,311,111.685,1184.01,66.438,4.486,66.439,5.052,66.438,5.618,0,0,0,0,0,0,scattergoodcc3,19324,scattergoodcc3,CA-404-4,26157,SCATT4G,Future-Planned,LDWP,CA_LDWP,404
Scattergood,4,216.9,206,206,75,OP,2015,Gas_CC,Gas,CT,404,CA,33.918151,-118.427648,WECC,LDWP,Scattergood CC4,CC F_7F.05,FALSE,1,1,1,30,30,17708.89,44,0,0.56,311,111.685,1184.01,66.438,4.486,66.439,5.052,66.438,5.618,0,0,0,0,0,0,scattergoodcc4,18580,scattergoodcc4,CA-404-4,26112,SCATT1G,Future-Planned,LDWP,CA_LDWP,404
AES Alamitos Energy Center,1S,216,215,216,0,OP,2020,Gas_CC,Gas,CC,62115,CA,33.767229,-118.100194,WECC,CISO,Alamitos CC1b,,,7,2,-1,17.6,17.6,13979.04,38.52,1,1.8,-1,-1,428.3646,0,0,0,0,,,,,,,,,,15898,alamitoscc1b,,24576,ALAMT CTG2,Existing,CISC,CA_CISO,
Oso Grande Wind Farm,OGW45,216,216,216,0,OP,2021,Wind,,WT,63502,NM,32.9323,-103.6664,WECC,TEPC,,,,,,,,,,,,,,,,,,,,,,,,,,,,,,,,,,,,,
Delta Energy Center,CTG3,213.5,165,180,115,OP,2002,Gas_CC,Gas,CT,55333,CA,38.0169,-121.8439,WECC,CISO,Delta EC CC1c,,,6,2,-1,16.14,16.14,20939.39,64.56,1,2.1,280,129.886,1046.513,50.038,5.426,50.038,5.899,,,,,,,,,,15936,deltaeccc1c,,33110,DEC CTG3,Existing,CIPB,CA_CISO,
Gateway Generating Station,C,213.3,209.4,223,55,OP,2009,Gas_CC,Gas,CC,56476,CA,38.0175,-121.7587,WECC,CISO,Gateway CC1b,,,6,2,-1,16.869,16.869,21885.17,67.476,1,2.1,295,147.5,1161.9,49.167,5.275,49.166,6.33,,,,,,,,,,15951,gatewaycc1b,,33119,GATEWAY2,Existing,CIPB,CA_CISO,
Hermiston Power Partnership,CTG1,212.5,184,195,80,OP,2002,Gas_CC,Gas,CT,55328,OR,45.794046,-119.313323,WECC,GRID,Hermiston Pwr CC1b,,,6,2,-1,19.44,19.44,25220.68,77.76,1,2.1,324,180,1337.254,30.833,5.625,30.834,6.168,,,,,,,,,,15971,hermistonpwrcc1b,,47640,HPP G2,Existing,BPAT,NW_BPAT,
Hermiston Power Partnership,CTG2,212.5,184,195,80,OP,2002,Gas_CC,Gas,CT,55328,OR,45.794046,-119.313323,WECC,GRID,Hermiston Pwr CC1b,,,6,2,-1,19.44,19.44,25220.68,77.76,1,2.1,324,180,1337.254,30.833,5.625,30.834,6.168,,,,,,,,,,15971,hermistonpwrcc1b,,47640,HPP G2,Existing,BPAT,NW_BPAT,
Delta Energy Center,CTG1,212,176,191,115,OP,2002,Gas_CC,Gas,CT,55333,CA,38.0169,-121.8439,WECC,CISO,Delta EC CC1c,,,6,2,-1,16.14,16.14,20939.39,64.56,1,2.1,280,129.886,1046.513,50.038,5.426,50.038,5.899,,,,,,,,,,15936,deltaeccc1c,,33110,DEC CTG3,Existing,CIPB,CA_CISO,
Sutter Energy Center,CT02,212,175,185,110,OP,2001,Gas_CC,Gas,CT,55112,CA,39.053139,-121.695873,WECC,WALC,Sutter EC CC1b,,,6,2,-1,15.75,15.75,20433.42,63,1,2.1,274.5,175,1284.249,33.167,5.809,33.166,6.129,,,,,,,,,,16061,suttereccc1b,,37522,SUTTER2,Existing,BANC,CA_BANC,
Delta Energy Center,CTG2,212,165,180,115,OP,2002,Gas_CC,Gas,CT,55333,CA,38.0169,-121.8439,WECC,CISO,Delta EC CC1c,,,6,2,-1,16.14,16.14,20939.39,64.56,1,2.1,280,129.886,1046.513,50.038,5.426,50.038,5.899,,,,,,,,,,15936,deltaeccc1c,,33110,DEC CTG3,Existing,CIPB,CA_CISO,
Sutter Energy Center,CT01,212,175,185,110,OP,2001,Gas_CC,Gas,CT,55112,CA,39.053139,-121.695873,WECC,WALC,Sutter EC CC1b,,,6,2,-1,15.75,15.75,20433.42,63,1,2.1,274.5,175,1284.249,33.167,5.809,33.166,6.129,,,,,,,,,,16061,suttereccc1b,,37522,SUTTER2,Existing,BANC,CA_BANC,
Sutter Energy Center,ST01,212,180,185,55,OP,2001,Gas_CC,Gas,CC,55112,CA,39.053139,-121.695873,WECC,WALC,Sutter EC CC1b,,,6,2,-1,15.75,15.75,20433.42,63,1,2.1,274.5,175,1284.249,33.167,5.809,33.166,6.129,,,,,,,,,,16061,suttereccc1b,,37522,SUTTER2,Existing,BANC,CA_BANC,
Sunrise Power LLC,X719,210.6,150,160,90,OP,2001,Gas_CC,Gas,CT,55182,CA,35.2097,-119.585,WECC,CISO,Sunrise CC1b,,,6,2,-1,16.95,16.95,21990.25,67.8,1,2.1,297.5,157.5,1147.298,27.167,5.856,27.166,6.157,,,,,,,,,,16059,sunrisecc1b,,35075,TEXSUN2G,Existing,CIPV,CA_CISO,
Sunrise Power LLC,X718,210.6,150,160,90,OP,2001,Gas_CC,Gas,CT,55182,CA,35.2097,-119.585,WECC,CISO,Sunrise CC1b,,,6,2,-1,16.95,16.95,21990.25,67.8,1,2.1,297.5,157.5,1147.298,27.167,5.856,27.166,6.157,,,,,,,,,,16059,sunrisecc1b,,35075,TEXSUN2G,Existing,CIPV,CA_CISO,
Spindle Hill Energy Center,GEN2,210,135,155,80,OP,2007,Gas_SC,Gas,CT,56445,CO,40.092192,-104.887844,WECC,PSCO,Spindle Hill 2,GT F_7FA,FALSE,1,1,1,15.4,15.4,9090.563,33.88,0,0.56,160,80,989.1603,26.667,6.721,26.666,7.567,26.667,8.414,0,0,0,0,0,0,spindlehill2,20641,spindlehill2,CO-56445-GEN2,70594,SPNDLE2,Existing,PSCO,RM_PSCO,56445
Spindle Hill Energy Center,GEN1,210,135,155,80,OP,2007,Gas_SC,Gas,CT,56445,CO,40.092192,-104.887844,WECC,PSCO,Spindle Hill 1,GT F_7FA,FALSE,1,1,1,15.4,15.4,9090.563,33.88,0,0.56,160,81,983.4004,26.333,7.002,26.334,7.394,26.333,7.785,0,0,0,0,0,0,spindlehill1,20640,spindlehill1,CO-56445-GEN1,70593,SPNDLE1,Existing,PSCO,RM_PSCO,56445
Buffalo Ridge II LLC,1,210,210,210,0,OP,2010,Wind,,WT,57424,SD,44.5281,-96.6267,WECC,MISO,,,,,,,,,,,,,,,,,,,,,,,,,,,,,,,,,,,,,
Coyote Springs,1,208,168.3,187.2,98.8,OP,1995,Gas_CC,Gas,CT,7350,OR,45.847998,-119.67392,WECC,PGE,,,,,,,,,,,,,,,,,,,,,,,,,,,,,,,,,,,,,
Marsh Landing Generating Station,2,207,191.1,200.7,120,OP,2013,Gas_SC,Gas,CT,57267,CA,38.016944,-121.765,WECC,CISO,MarshLanding2,GT F_5000F,FALSE,1,1,-1,19.35,19.35,11422.23,42.57,1,0.56,210,130,1508.975,26.667,8.741,26.666,8.964,26.667,9.186,0,0,0,0,0,0,marshlanding2,4818,marshlanding2,CA-57267-2,33189,MARSHCT2,Existing,CIPB,CA_CISO,57267
Marsh Landing Generating Station,4,207,191.8,202.2,120,OP,2013,Gas_SC,Gas,CT,57267,CA,38.016944,-121.765,WECC,CISO,MarshLanding4,GT F_5000F,FALSE,1,1,-1,19.35,19.35,11422.23,42.57,1,0.56,210,125,1452.297,28.333,8.309,28.334,8.862,28.333,9.416,0,0,0,0,0,0,marshlanding4,4819,marshlanding4,CA-57267-4,33191,MARSHCT4,Existing,CIPB,CA_CISO,57267
Marsh Landing Generating Station,1,207,191.9,201.6,120,OP,2013,Gas_SC,Gas,CT,57267,CA,38.016944,-121.765,WECC,CISO,MarshLanding1,GT F_5000F,FALSE,1,1,-1,19.35,19.35,11422.23,42.57,1,0.56,210,130,1495.778,26.667,8.698,26.666,8.737,26.667,8.775,0,0,0,0,0,0,marshlanding1,1666,marshlanding1,CA-57267-1,33188,MARSHCT1,Existing,CIPB,CA_CISO,57267
Ray D Nixon,1,207,208,208,110,OP,1980,Coal,Coal,CT,8219,CO,38.633451,-104.70577,WECC,WACM,Ray D Nixon 1,ST-Col,FALSE,48,108,-1,4.16,4.16,30838.81,1940.64,1,1.79,208,100,1109.854,21.6,9.983,32.4,10.225,54,10.611,0,0,0,0,0,0,raydnixon1,13958,raydnixon1,CO-8219-1,78516,RD_NIXON,Existing,PSCO,RM_PSCO,8219
Marsh Landing Generating Station,3,207,190.4,200.3,120,OP,2013,Gas_SC,Gas,CT,57267,CA,38.016944,-121.765,WECC,CISO,MarshLanding3,GT F_5000F,FALSE,1,1,-1,19.35,19.35,11422.23,42.57,1,0.56,210,125,1452.297,28.333,8.309,28.334,8.862,28.333,9.416,0,0,0,0,0,0,marshlanding3,1667,marshlanding3,CA-57267-3,33190,MARSHCT3,Existing,CIPB,CA_CISO,57267
Lake Side Power Plant,CT22,206,178,183.2,0,OP,2014,Gas_CC,Gas,CT,56237,UT,40.331667,-111.754167,WECC,PACE,Lake Side CC2b,,,6,2,-1,17.4915,17.4915,22692.77,69.966,1,2.1,302.5,119.936,959.7112,46.2045,5.39,46.205,5.86,,,,,,,,,,15990,lakesidecc2b,,67908,LAKSDST2,Existing,PAUT,BS_PACE,
Lake Side Power Plant,CT21,206,178,183.2,0,OP,2014,Gas_CC,Gas,CT,56237,UT,40.331667,-111.754167,WECC,PACE,Lake Side CC2b,,,6,2,-1,17.4915,17.4915,22692.77,69.966,1,2.1,302.5,119.936,959.7112,46.2045,5.39,46.205,5.86,,,,,,,,,,15990,lakesidecc2b,,67908,LAKSDST2,Existing,PAUT,BS_PACE,
"Niyol Wind, LLC",WNIYO,205.6,205,205,0,OP,2021,Wind,,WT,65059,CO,40.613364,-102.9526,WECC,WACM,,,,,,,,,,,,,,,,,,,,,,,,,,,,,,,,,,,,,
RE Tranquillity,TQ,205.3,200,200,0,OP,2016,Solar,Solar,PV,59939,CA,36.581365,-120.40447,WECC,CISO,,,,,,,,,,,,,,,,,,,,,,,,,,,,,,,,,,,,,
Hermiston Generating Plant,GEN4,204.5,152,160,99,OP,1996,Gas_CC,Gas,CT,54761,OR,45.8042,-119.37,WECC,PACW,,,,,,,,,,,,,,,,,,,,,,,,,,,,,,,,,,,,,
Hermiston Generating Plant,GEN2,204.5,152,160,99,OP,1996,Gas_CC,Gas,CT,54761,OR,45.8042,-119.37,WECC,PACW,,,,,,,,,,,,,,,,,,,,,,,,,,,,,,,,,,,,,
Red Hawk,ST1,204,171,174,0,OP,2002,Gas_CC,Gas,CC,55455,AZ,33.334562,-112.840641,WECC,SRP,Red Hawk CC2b,,,6,2,-1,14.613,14.613,18958.32,58.452,1,2.1,272.5,140,1063.626,88.3335,5.8765,22.083,3.144,,,,,,,,,,16039,redhawkcc2b,,14977,RED-CT4,Existing,TH_PV,SW_TH_PV,
Red Hawk,ST2,204,171,174,0,OP,2002,Gas_CC,Gas,CC,55455,AZ,33.334562,-112.840641,WECC,SRP,Red Hawk CC2b,,,6,2,-1,14.613,14.613,18958.32,58.452,1,2.1,272.5,140,1063.626,88.3335,5.8765,22.083,3.144,,,,,,,,,,16039,redhawkcc2b,,14977,RED-CT4,Existing,TH_PV,SW_TH_PV,
Apache Station,ST2,204,175,175,50,OP,1979,Gas_SC,Gas,CT,160,AZ,32.0603,-109.8931,WECC,WALC,Apache ST2,ST-Col,FALSE,6,12,-1,3.894,3.894,28866.91,1632.75,1,1.79,175,50,669.2489,25,10.345,37.5,10.727,62.5,11.338,0,0,0,0,0,0,apachest2,13421,apachest2,AZ-160-ST2,17029,APACH-ST-2,Existing,WALC,SW_WALC,160
Apache Station,ST3,204,175,175,50,OP,1979,Coal,Coal,CT,160,AZ,32.0603,-109.8931,WECC,WALC,Apache ST3,ST-Col,FALSE,48,108,-1,3.894,3.894,28866.91,1632.75,1,1.79,175,49.359,629.9562,25.128,10.314,37.692,10.841,62.821,11.685,0,0,0,0,0,0,apachest3,13422,apachest3,AZ-160-ST3,17030,APACH-ST-3,Existing,WALC,SW_WALC,160
New Mexico Wind Energy Center,GE15,204,204,204,0,OP,2003,Wind,,WT,56097,NM,34.63566,-104.04733,WECC,PNM,,,,,,,,,,,,,,,,,,,,,,,,,,,,,,,,,,,,,
White Creek Wind Farm,1,204,204,204,0,OP,2007,Wind,,WT,56487,WA,45.815467,-120.341883,WECC,BPAT,,,,,,,,,,,,,,,,,,,,,,,,,,,,,,,,,,,,,
Milford Wind Corridor I LLC,1,203.5,203.5,203.5,0,OP,2009,Wind,,WT,57079,UT,38.53569,-112.935,WECC,LDWP,,,,,,,,,,,,,,,,,,,,,,,,,,,,,,,,,,,,,
Gateway Generating Station,B,203.2,177,181.4,75,OP,2009,Gas_CC,Gas,CT,56476,CA,38.0175,-121.7587,WECC,CISO,Gateway CC1b,,,6,2,-1,16.869,16.869,21885.17,67.476,1,2.1,295,147.5,1161.9,49.167,5.275,49.166,6.33,,,,,,,,,,15951,gatewaycc1b,,33119,GATEWAY2,Existing,CIPB,CA_CISO,
Gateway Generating Station,A,203.2,177,181.4,75,OP,2009,Gas_CC,Gas,CT,56476,CA,38.0175,-121.7587,WECC,CISO,Gateway CC1b,,,6,2,-1,16.869,16.869,21885.17,67.476,1,2.1,295,147.5,1161.9,49.167,5.275,49.166,6.33,,,,,,,,,,15951,gatewaycc1b,,33119,GATEWAY2,Existing,CIPB,CA_CISO,
Lake Side Power Plant,CT01,203,169,174,120,OP,2007,Gas_CC,Gas,CT,56237,UT,40.331667,-111.754167,WECC,PACE,Lake Side CC2b,,,6,2,-1,17.4915,17.4915,22692.77,69.966,1,2.1,302.5,119.936,959.7112,46.2045,5.39,46.205,5.86,,,,,,,,,,15990,lakesidecc2b,,67908,LAKSDST2,Existing,PAUT,BS_PACE,
Lake Side Power Plant,CT02,203,169,174,120,OP,2007,Gas_CC,Gas,CT,56237,UT,40.331667,-111.754167,WECC,PACE,Lake Side CC2b,,,6,2,-1,17.4915,17.4915,22692.77,69.966,1,2.1,302.5,119.936,959.7112,46.2045,5.39,46.205,5.86,,,,,,,,,,15990,lakesidecc2b,,67908,LAKSDST2,Existing,PAUT,BS_PACE,
Chuck Lenzie Generating Station,CTG1,201.5,184,179,90,OP,2006,Gas_CC,Gas,CT,55322,NV,36.383719,-114.921779,WECC,NEVP,C Lenzie CC2b,,,6,2,-1,17.55,17.55,22768.67,70.2,1,2.1,300,135,1052.064,37.667,5.584,37.666,6.092,,,,,,,,,,15917,clenziecc2b,,18435,LENZIE 5,Existing,NEVP,SW_NVE,
Chuck Lenzie Generating Station,CTG4,201.5,184,179,90,OP,2006,Gas_CC,Gas,CT,55322,NV,36.383719,-114.921779,WECC,NEVP,C Lenzie CC2b,,,6,2,-1,17.55,17.55,22768.67,70.2,1,2.1,300,135,1052.064,37.667,5.584,37.666,6.092,,,,,,,,,,15917,clenziecc2b,,18435,LENZIE 5,Existing,NEVP,SW_NVE,
Chuck Lenzie Generating Station,CTG2,201.5,184,179,90,OP,2006,Gas_CC,Gas,CT,55322,NV,36.383719,-114.921779,WECC,NEVP,C Lenzie CC2b,,,6,2,-1,17.55,17.55,22768.67,70.2,1,2.1,300,135,1052.064,37.667,5.584,37.666,6.092,,,,,,,,,,15917,clenziecc2b,,18435,LENZIE 5,Existing,NEVP,SW_NVE,
Chuck Lenzie Generating Station,CTG3,201.5,184,179,90,OP,2006,Gas_CC,Gas,CT,55322,NV,36.383719,-114.921779,WECC,NEVP,C Lenzie CC2b,,,6,2,-1,17.55,17.55,22768.67,70.2,1,2.1,300,135,1052.064,37.667,5.584,37.666,6.092,,,,,,,,,,15917,clenziecc2b,,18435,LENZIE 5,Existing,NEVP,SW_NVE,
Golden Hill Wind,GH1,201.3,201.3,201.3,0,OP,2022,Wind,,WT,63710,OR,45.562715,-120.708464,WECC,AVRN,,,,,,,,,,,,,,,,,,,,,,,,,,,,,,,,,,,,,
Logan Wind Energy,1,201,201,201,10.1,OP,2007,Wind,,WT,56613,CO,40.941,-103.259,WECC,PSCO,,,,,,,,,,,,,,,,,,,,,,,,,,,,,,,,,,,,,
Leaning Juniper Wind Power II,1,201,199.2,199.2,0,OP,2011,Wind,,WT,57333,OR,45.651,-120.2598,WECC,AVRN,,,,,,,,,,,,,,,,,,,,,,,,,,,,,,,,,,,,,
West Phoenix,C5-3,200.6,150,166,0,OP,2003,Gas_CC,Gas,CC,117,AZ,33.4417,-112.1583,WECC,AZPS,West Phoenix CC5b,,,4.75,1.75,-1,18.078,18.078,9232.848375,30.332,1,1.6875,107.7625,64.3775,608.7129375,29.39325,8.852875,10.137625,2.6475,,,,,,,,,,16071,westphoenixcc5b,,14967,WPCC5CT2,Existing,AZPS,SW_AZPS,
Limon III Wind LLC,WT1,200.6,200.6,200.6,7,OP,2014,Wind,,WT,59083,CO,39.353333,-103.474167,WECC,PSCO,,,,,,,,,,,,,,,,,,,,,,,,,,,,,,,,,,,,,
Metcalf Energy Center,CTG1,200,172,188,116,OP,2005,Gas_CC,Gas,CT,55393,CA,37.2207,-121.7457,WECC,CISO,Metcalf CC1b,,,6,2,-1,17.25,17.25,22379.46,69,1,2.1,292.75,168.329,1237.038,38.2485,5.786,44.914,6.418,,,,,,,,,,16013,metcalfcc1b,,35882,MEC CTG2,Existing,CIPB,CA_CISO,
Russell City Energy Center,CTG1,200,185,200,117,OP,2013,Gas_CC,Gas,CT,56467,CA,37.63466,-122.13381,WECC,CISO,Russell City CC1b,,,6,2,-1,18.6,18.6,24130.9,74.4,1,2.1,315,192.5,1381.045,40.833,5.737,40.834,6.528,,,,,,,,,,16049,russellcitycc1b,,35305,RUSCTYECCT2,Existing,CIPB,CA_CISO,
Metcalf Energy Center,CTG2,200,172,188,116,OP,2005,Gas_CC,Gas,CT,55393,CA,37.2207,-121.7457,WECC,CISO,Metcalf CC1b,,,6,2,-1,17.25,17.25,22379.46,69,1,2.1,292.75,168.329,1237.038,38.2485,5.786,44.914,6.418,,,,,,,,,,16013,metcalfcc1b,,35882,MEC CTG2,Existing,CIPB,CA_CISO,
Carty Generating Station,GEN2,200,168.2,189.9,66.4,OP,2016,Gas_CC,Gas,CC,58503,OR,45.698611,-119.813056,WECC,PGE,,,,,,,,,,,,,,,,,,,,,,,,,,,,,,,,,,,,,
Russell City Energy Center,CTG2,200,185,200,117,OP,2013,Gas_CC,Gas,CT,56467,CA,37.63466,-122.13381,WECC,CISO,Russell City CC1b,,,6,2,-1,18.6,18.6,24130.9,74.4,1,2.1,315,192.5,1381.045,40.833,5.737,40.834,6.528,,,,,,,,,,16049,russellcitycc1b,,35305,RUSCTYECCT2,Existing,CIPB,CA_CISO,
Top of the World Windpower Project,TOTW1,200,200,200,0.1,OP,2010,Wind,,WT,57327,WY,42.9258,-105.7872,WECC,PACE,,,,,,,,,,,,,,,,,,,,,,,,,,,,,,,,,,,,,
Montague Wind Power Facility LLC,1,200,200,200,0,OP,2019,Wind,,WT,58099,OR,45.5857,-120.0904,WECC,AVRN,,,,,,,,,,,,,,,,,,,,,,,,,,,,,,,,,,,,,
Limon Wind I,1,200,200,200,7,OP,2012,Wind,,WT,58126,CO,39.380975,-103.573236,WECC,PSCO,,,,,,,,,,,,,,,,,,,,,,,,,,,,,,,,,,,,,
Limon Wind II,1,200,200,200,200,OP,2012,Wind,,WT,58127,CO,39.341389,-103.581111,WECC,PSCO,,,,,,,,,,,,,,,,,,,,,,,,,,,,,,,,,,,,,
Wright Solar Park,FRWSP,200,200,180,1,OP,2019,Solar,Solar,PV,59525,CA,37.009444,-120.957222,WECC,CISO,,,,,,,,,,,,,,,,,,,,,,,,,,,,,,,,,,,,,
Techren Solar II LLC,TECH2,200,200,200,0,OP,2019,Solar,Solar,PV,61930,NV,35.867258,-114.956428,WECC,NEVP,,,,,,,,,,,,,,,,,,,,,,,,,,,,,,,,,,,,,
Diablo Energy Storage,DIBLO,200,200,200,0,OP,2022,Battery,,BA,62175,CA,38.028792,-121.900596,WECC,CISO,,,,,,,,,,,,,,,,,,,,,,,,,,,,,,,,,,,,,
Wheatridge Hybrid,WIND,200,200,200,30,OP,2020,Wind,,WT,62745,OR,45.55975,-119.6338,WECC,BPAT,,,,,,,,,,,,,,,,,,,,,,,,,,,,,,,,,,,,,
Dodge Flat,DODGE,200,200,200,0,OP,2022,Solar,Solar,PV,63913,NV,40.713024,-119.467217,WECC,NEVP,,,,,,,,,,,,,,,,,,,,,,,,,,,,,,,,,,,,,
Cedar Springs I,82633,200,200,200,0,OP,2020,Wind,,WT,63914,WY,43.019714,-105.472139,WECC,PACE,,,,,,,,,,,,,,,,,,,,,,,,,,,,,,,,,,,,,
Cedar Springs II,82634,200,198.8,198.8,0,OP,2020,Wind,,WT,63915,WY,42.969007,-105.365616,WECC,PACE,,,,,,,,,,,,,,,,,,,,,,,,,,,,,,,,,,,,,
"SE Athos II, LLC",IPAT2,200,200,200,0,OP,2021,Solar,Solar,PV,64290,CA,33.751283,-115.35499,WECC,CISO,,,,,,,,,,,,,,,,,,,,,,,,,,,,,,,,,,,,,
Sun Mountain Solar 1,COSM1,200,200,200,0,OP,2022,Solar,Solar,PV,65032,CO,38.180331,-104.518529,WECC,PSCO,,,,,,,,,,,,,,,,,,,,,,,,,,,,,,,,,,,,,
Crimson,SWSH1,200,200,200,0,OP,2022,Battery,,BA,65140,CA,33.57345,-114.814541,WECC,CISO,,,,,,,,,,,,,,,,,,,,,,,,,,,,,,,,,,,,,
J S Eastwood,1,199.8,199.8,199.8,0,OS,1987,Hydro,,PS,104,CA,37.147926,-119.2567,WECC,CISO,,,,,,,,,,,,,,,,,,,,,,,,,,,,,,,,,,,,,
Peetz Table Wind Energy,GE,199.5,199.5,199.5,10,OP,2007,Wind,,WT,56563,CO,40.986,-103.436,WECC,PSCO,,,,,,,,,,,,,,,,,,,,,,,,,,,,,,,,,,,,,
Elk Hills Power LLC,CTG1,199,156,165,90,OP,2003,Gas_CC,Gas,CT,55400,CA,35.280318,-119.470707,WECC,CISO,Elk Hills CC1b,,,6,2,-1,15.96,15.96,20705.87,63.84,1,2.1,272.5,217.5,1515.207,31.5,6.441,23.5,9.2,,,,,,,,,,15944,elkhillscc1b,,35077,ELKHIL2G,Existing,CIPV,CA_CISO,
Elk Hills Power LLC,CTG2,199,156,165,90,OP,2003,Gas_CC,Gas,CT,55400,CA,35.280318,-119.470707,WECC,CISO,Elk Hills CC1b,,,6,2,-1,15.96,15.96,20705.87,63.84,1,2.1,272.5,217.5,1515.207,31.5,6.441,23.5,9.2,,,,,,,,,,15944,elkhillscc1b,,35077,ELKHIL2G,Existing,CIPV,CA_CISO,
Big Horn Wind Project,1,199,199,199,0,OP,2006,Wind,,WT,56361,WA,45.8877,-120.2896,WECC,AVRN,,,,,,,,,,,,,,,,,,,,,,,,,,,,,,,,,,,,,
Blue Spruce Energy Center,CT01,198.9,130,144,66,OP,2003,Gas_SC,Gas,CT,55645,CO,39.747875,-104.681404,WECC,PSCO,Blue Spruce 1,GT F_Frame F,FALSE,1,1,-1,14.6,14.6,8618.327,32.12,1,0.56,150,81,1090.384,23,7.03,23,7.909,23,8.789,0,0,0,0,0,0,bluespruce1,13821,bluespruce1,CO-55645-CT01,70562,SPRUCE1,Existing,PSCO,RM_PSCO,55645
Otay Mesa Generating Project,2-Jan,198.9,152.8,165.9,85,OP,2009,Gas_CC,Gas,CT,55345,CA,32.581481,-116.914969,WECC,CISO,Otay Mesa CC1b,,,6,2,-1,17.13,17.13,22223.78,68.52,1,2.1,305,117.13,934.1575,45.123,5.371,45.124,5.839,,,,,,,,,,16031,otaymesacc1b,,22606,OTAYMGT2,Existing,CISD,CA_CISO,
Grays Harbor Energy Facility,CT1,198.9,151,188,100,OP,2008,Gas_CC,Gas,CT,7999,WA,46.9692,-123.48,WECC,BPAT,Grays Harbor CC1b,,,6,2,-1,19.71,19.71,25570.96,78.84,1,2.1,322.5,172.5,1245.647,29.167,5.565,29.166,5.958,,,,,,,,,,15961,graysharborcc1b,,47597,GRAYS_HRB_G2,Existing,BPAT,NW_BPAT,
Blue Spruce Energy Center,CT02,198.9,134,148,71,OP,2003,Gas_SC,Gas,CT,55645,CO,39.747875,-104.681404,WECC,PSCO,Blue Spruce 2,GT F_Frame F,FALSE,1,1,-1,14.6,14.6,8618.327,32.12,1,0.56,150,80,1081.353,23.333,6.989,23.334,8.114,23.333,9.241,0,0,0,0,0,0,bluespruce2,13822,bluespruce2,CO-55645-CT02,70563,SPRUCE2,Existing,PSCO,RM_PSCO,55645
Otay Mesa Generating Project,1-Jan,198.9,152.8,165.9,85,OP,2009,Gas_CC,Gas,CT,55345,CA,32.581481,-116.914969,WECC,CISO,Otay Mesa CC1b,,,6,2,-1,17.13,17.13,22223.78,68.52,1,2.1,305,117.13,934.1575,45.123,5.371,45.124,5.839,,,,,,,,,,16031,otaymesacc1b,,22606,OTAYMGT2,Existing,CISD,CA_CISO,
Los Medanos Energy Center,CTG1,198.9,165,177,105,OP,2001,Gas_CC,Gas,CT,55217,CA,38.030071,-121.873004,WECC,CISO,Los Medanos EC CC1b,,,6,2,-1,17.61,17.61,22846.51,70.44,1,2.1,302,180,1296.701,32.5,5.749,32.5,6.054,,,,,,,,,,16003,losmedanoseccc1b,,33111,LMECCT2,Existing,CIPB,CA_CISO,
Los Medanos Energy Center,CTG2,198.9,165,177,105,OP,2001,Gas_CC,Gas,CT,55217,CA,38.030071,-121.873004,WECC,CISO,Los Medanos EC CC1b,,,6,2,-1,17.61,17.61,22846.51,70.44,1,2.1,302,180,1296.701,32.5,5.749,32.5,6.054,,,,,,,,,,16003,losmedanoseccc1b,,33111,LMECCT2,Existing,CIPB,CA_CISO,
Grays Harbor Energy Facility,CT2,198.9,153,190,100,OP,2008,Gas_CC,Gas,CT,7999,WA,46.9692,-123.48,WECC,BPAT,Grays Harbor CC1b,,,6,2,-1,19.71,19.71,25570.96,78.84,1,2.1,322.5,172.5,1245.647,29.167,5.565,29.166,5.958,,,,,,,,,,15961,graysharborcc1b,,47597,GRAYS_HRB_G2,Existing,BPAT,NW_BPAT,
Magnolia Power Project,1,198.9,161,165,39,OP,2005,Gas_CC,Gas,CT,56046,CA,34.1786,-118.3153,WECC,LDWP,Magnolia Anaheim,CC,FALSE,6,2,-1,6.54,6.54,8484.734,90.24,1,2.1,109,52.18,809.87,18.93,4.688,18.93,5.796,18.96,6.797,0,0,0,0,0,0,magnoliaanaheim,17030,magnoliaanaheim,CA-56046-1,27497,MAG_CT69,Existing,LDWP,CA_LDWP,56046
El Segundo Energy Center LLC,7,198,195,195,100,OP,2013,Gas_CC,Gas,CT,57901,CA,33.910556,-118.425,WECC,CISO,,,,,,,,,,,,,,,,,,,,,,,,,,,,,,,,,,,,,
Arlington Valley Energy Facility,CTG2,198,163,163,80,OP,2002,Gas_CC,Gas,CT,55282,AZ,33.3417,-112.8897,WECC,DEAA,Arlington Valley CC1b,,,6,2,-1,18.6,18.6,24130.9,74.4,1,2.1,300,150,1103.901,33.333,5.573,33.334,5.947,,,,,,,,,,15904,arlingtonvalleycc1b,,15146,ARL-CT2,Existing,TH_PV,SW_TH_PV,
El Segundo Energy Center LLC,5,198,195,195,100,OP,2013,Gas_CC,Gas,CT,57901,CA,33.910556,-118.425,WECC,CISO,,,,,,,,,,,,,,,,,,,,,,,,,,,,,,,,,,,,,
Arlington Valley Energy Facility,CTG1,198,162,162,80,OP,2002,Gas_CC,Gas,CT,55282,AZ,33.3417,-112.8897,WECC,DEAA,Arlington Valley CC1b,,,6,2,-1,18.6,18.6,24130.9,74.4,1,2.1,300,150,1103.901,33.333,5.573,33.334,5.947,,,,,,,,,,15904,arlingtonvalleycc1b,,15146,ARL-CT2,Existing,TH_PV,SW_TH_PV,
Silverhawk,CT1,197.2,180,171,90,OP,2004,Gas_CC,Gas,CT,55841,NV,36.4078,-114.9606,WECC,NEVP,Silverhawk CC1b,,,6,2,-1,16.98,16.98,22029.17,67.92,1,2.1,285,152.5,1166.331,32.667,5.942,32.666,6.548,,,,,,,,,,16055,silverhawkcc1b,,18402,SLHWKG2,Existing,NEVP,SW_NVE,
Silverhawk,CT2,197.2,180,171,90,OP,2004,Gas_CC,Gas,CT,55841,NV,36.4078,-114.9606,WECC,NEVP,Silverhawk CC1b,,,6,2,-1,16.98,16.98,22029.17,67.92,1,2.1,285,152.5,1166.331,32.667,5.942,32.666,6.548,,,,,,,,,,16055,silverhawkcc1b,,18402,SLHWKG2,Existing,NEVP,SW_NVE,
Cosumnes,2,196.8,185,202,160,OP,2006,Gas_CC,Gas,CT,55970,CA,38.338475,-121.123978,WECC,BANC,Cosumnes CC1b,,,6,2,-1,16.038,16.038,20807.06,64.152,1,2.1,265,155,1183.792,36.667,5.274,36.666,5.87,,,,,,,,,,15929,cosumnescc1b,,37322,COSUMNE2,Existing,BANC,CA_BANC,
Desert Star Energy Center,ED03,195.5,170,190,112,OP,2000,Gas_CC,Gas,CC,55077,NV,35.788889,-114.994167,WECC,CISO,Desert Star CC1b,,,6,2,-1,14.73,14.73,19110.11,58.92,1,2.1,245.5,145,1111.967,100.5,6.396,0,0,,,,,,,,,,15940,desertstarcc1b,,25102,DSEC CT2,Existing,CISC,CA_CISO,
Naughton,1,192,156,156,21,OP,1963,Coal,Coal,CT,4162,WY,41.7581,-110.5983,WECC,PACE,Naughton1,ST-Col,FALSE,48,108,-1,5.46,5.46,18250.67,1455.48,1,2.4,156,35.657,495.4475,24.069,9.942,36.103,10.77,60.171,12.094,0,0,0,0,0,0,naughton1,11092,naughton1,WY-4162-1,66055,NAUGT G1,Existing,PAWY,BS_PACE,4162
Frederickson Power LP,FICT,192,164,180,95,OP,2002,Gas_CC,Gas,CT,55818,WA,47.086111,-122.365674,WECC,BPAT,,,,,,,,,,,,,,,,,,,,,,,,,,,,,,,,,,,,,
"Golden Field Solar III, LLC",RCTR,192,192,192,0,OP,2020,Solar,Solar,PV,63859,CA,34.847,-118.395,WECC,CISO,,,,,,,,,,,,,,,,,,,,,,,,,,,,,,,,,,,,,
Hayden,1,190,179,179,110,OP,1965,Coal,Coal,CT,525,CO,40.4856,-107.185,WECC,PSCO,Hayden 1,ST-Col,FALSE,48,108,-1,4.24,4.24,31431.86,1670.07,1,1.79,179,102.925,1333.311,25.358,11.614,50.717,12.531,0,0,0,0,0,0,0,0,hayden1,14008,hayden1,CO-525-1,79040,HAYDEN1,Existing,WACM,RM_WACM,525
Cosumnes,1,190,171,178.6,160,OP,2006,Gas_CC,Gas,CC,55970,CA,38.338475,-121.123978,WECC,BANC,Cosumnes CC1b,,,6,2,-1,16.038,16.038,20807.06,64.152,1,2.1,265,155,1183.792,36.667,5.274,36.666,5.87,,,,,,,,,,15929,cosumnescc1b,,37322,COSUMNE2,Existing,BANC,CA_BANC,
Mountainview Generating Station,MV4C,189.2,197,191,90,OP,2006,Gas_CC,Gas,CC,358,CA,34.0818,-117.2418,WECC,CISO,Mtnview CC4b,,,6,2,-1,15.75,15.75,20433.42,63,1,2.1,271.5,135,1037.7275,45.5,5.442,45.5,5.9625,,,,,,,,,,16021,mtnviewcc4b,,24925,MNTV-G4B,Existing,CISC,CA_CISO,
Mountainview Generating Station,MV3C,189.2,197,191,90,OP,2005,Gas_CC,Gas,CC,358,CA,34.0818,-117.2418,WECC,CISO,Mtnview CC4b,,,6,2,-1,15.75,15.75,20433.42,63,1,2.1,271.5,135,1037.7275,45.5,5.442,45.5,5.9625,,,,,,,,,,16021,mtnviewcc4b,,24925,MNTV-G4B,Existing,CISC,CA_CISO,
Manzana Wind LLC,GEN1,189,189,189,0,OP,2012,Wind,,WT,57484,CA,34.9349,-118.4612,WECC,CISO,,,,,,,,,,,,,,,,,,,,,,,,,,,,,,,,,,,,,
NaturEner Rim Rock Energy,RR,189,184.6,184.6,0,OP,2012,Wind,,WT,57995,MT,48.820278,-112.103333,WECC,WWA,,,,,,,,,,,,,,,,,,,,,,,,,,,,,,,,,,,,,
Magnolia Power Project,2,188.7,140,140,48,OP,2005,Gas_CC,Gas,CC,56046,CA,34.1786,-118.3153,WECC,LDWP,Magnolia1,,,6,2,-1,7.71,7.71,8440.3975,68.82,0.75,2.025,109,59.795,519.0545,12.4825,4.214,11.2325,2.918,,,,,,,,,,18581,magnolia1,,27250,MAG_ST,Existing,LDWP,CA_LDWP,
Goldendale Generating Station,G1,188.5,153.1,194,70,OP,2004,Gas_CC,Gas,CT,55482,WA,45.8114,-120.833,WECC,PSEI,,,,,,,,,,,,,,,,,,,,,,,,,,,,,,,,,,,,,
Red Hawk,CT1A,187.5,148,166,75,OP,2002,Gas_CC,Gas,CT,55455,AZ,33.334562,-112.840641,WECC,SRP,Red Hawk CC2b,,,6,2,-1,14.613,14.613,18958.32,58.452,1,2.1,272.5,140,1063.626,88.3335,5.8765,22.083,3.144,,,,,,,,,,16039,redhawkcc2b,,14977,RED-CT4,Existing,TH_PV,SW_TH_PV,
Langley Gulch Power Plant,GTG,187,221,199.9,120,OP,2012,Gas_CC,Gas,CT,57028,ID,43.904444,-116.819722,WECC,IPCO,,,,,,,,,,,,,,,,,,,,,,,,,,,,,,,,,,,,,
Desert Basin,CTG2,187,182,196,100,OP,2001,Gas_CC,Gas,CT,55129,AZ,32.9042,-111.7889,WECC,SRP,Desert Basin CC1b,,,6,2,-1,17.733,17.733,23006.08,70.932,1,2.1,307.5,180,1295.273,27,6.174,27,6.565,,,,,,,,,,15938,desertbasincc1b,,15141,DBG-CT2,Existing,SRP,SW_SRP,
Desert Basin,CTG1,187,182,196,100,OA,2001,Gas_CC,Gas,CT,55129,AZ,32.9042,-111.7889,WECC,SRP,Desert Basin CC1b,,,6,2,-1,17.733,17.733,23006.08,70.932,1,2.1,307.5,180,1295.273,27,6.174,27,6.565,,,,,,,,,,15938,desertbasincc1b,,15141,DBG-CT2,Existing,SRP,SW_SRP,
Mint Farm Generating Station,CTG1,186,150,207,75,OP,2008,Gas_CC,Gas,CT,55700,WA,46.138824,-122.985506,WECC,PSEI,,,,,,,,,,,,,,,,,,,,,,,,,,,,,,,,,,,,,
Mesquite Generating Station Block 1,GT2,185.3,160,170,50,OP,2003,Gas_CC,Gas,CT,58557,AZ,33.345,-112.864167,WECC,SRP,Mesquite CC1b,,,6,2,-1,18.27,18.27,23702.77,73.08,1,2.1,322.5,162.5,1173.815,26.667,5.479,26.666,6.02,,,,,,,,,,16009,mesquitecc1b,,15165,MES-CT2,Existing,TH_PV,SW_TH_PV,
Mesquite Generating Station Block 2,GT4,185.3,162,162,70,OP,2003,Gas_CC,Gas,CT,55481,AZ,33.345047,-112.864227,WECC,SRP,Mesquite CC2b,,,6,2,-1,18.03,18.03,23391.4,72.12,1,2.1,312,160,1183.8,27.167,5.579,27.166,6.062,,,,,,,,,,16011,mesquitecc2b,,15168,MES-CT6,Existing,TH_PV,SW_TH_PV,
Mesquite Generating Station Block 1,GT1,185.3,160,170,50,OP,2003,Gas_CC,Gas,CT,58557,AZ,33.345,-112.864167,WECC,SRP,Mesquite CC1b,,,6,2,-1,18.27,18.27,23702.77,73.08,1,2.1,322.5,162.5,1173.815,26.667,5.479,26.666,6.02,,,,,,,,,,16009,mesquitecc1b,,15165,MES-CT2,Existing,TH_PV,SW_TH_PV,
Mesquite Generating Station Block 2,GT3,185.3,162,162,70,OP,2003,Gas_CC,Gas,CT,55481,AZ,33.345047,-112.864227,WECC,SRP,Mesquite CC2b,,,6,2,-1,18.03,18.03,23391.4,72.12,1,2.1,312,160,1183.8,27.167,5.579,27.166,6.062,,,,,,,,,,16011,mesquitecc2b,,15168,MES-CT6,Existing,TH_PV,SW_TH_PV,
Cherokee,5,185.3,168,176,32,OP,2015,Gas_CC,Gas,CT,469,CO,39.807275,-104.964548,WECC,PSCO,Cherokee CC1b,,,21.33333333,37.33333333,-1,15.505,15.505,32419.14333,1825.226667,1,2,329.3333333,175,1346.736333,44.222,6.981333333,44.22266667,7.223,,,,,,,,,,15921,cherokeecc1b,,70147,CHEROKEE7,Existing,PSCO,RM_PSCO,
Cherokee,6,185.3,168,176,32,OP,2015,Gas_CC,Gas,CT,469,CO,39.807275,-104.964548,WECC,PSCO,Cherokee CC1b,,,21.33333333,37.33333333,-1,15.505,15.505,32419.14333,1825.226667,1,2,329.3333333,175,1346.736333,44.222,6.981333333,44.22266667,7.223,,,,,,,,,,15921,cherokeecc1b,,70147,CHEROKEE7,Existing,PSCO,RM_PSCO,
RE Garland,PV2,185.1,180,180,0,OP,2016,Solar,Solar,PV,60233,CA,34.825267,-118.524989,WECC,CISO,,,,,,,,,,,,,,,,,,,,,,,,,,,,,,,,,,,,,
"Pastoria Energy Facility, LLC",ST03,185,174,184,50,OP,2005,Gas_CC,Gas,CC,55656,CA,34.9556,-118.844,WECC,CISO,Pastoria CC1b,,,6,2,-1,14.76,14.76,19149.03,59.04,1,2.1,129.5,71,540.157,19.5,5.435,19.5,6.047,,,,,,,,,,16035,pastoriacc1b,,29052,PSTRIAG2,Existing,CISC,CA_CISO,
Lodi Energy Center,CT1,185,162,181,100,OP,2012,Gas_CC,Gas,CT,57978,CA,38.088056,-121.3875,WECC,CISO,,,,,,,,,,,,,,,,,,,,,,,,,,,,,,,,,,,,,
West Phoenix,C5-1,184.5,155,160,85,OP,2003,Gas_CC,Gas,CT,117,AZ,33.4417,-112.1583,WECC,AZPS,West Phoenix CC5b,,,4.75,1.75,-1,18.078,18.078,9232.848375,30.332,1,1.6875,107.7625,64.3775,608.7129375,29.39325,8.852875,10.137625,2.6475,,,,,,,,,,16071,westphoenixcc5b,,14967,WPCC5CT2,Existing,AZPS,SW_AZPS,
West Phoenix,C5-2,184.5,153,160,85,OP,2003,Gas_CC,Gas,CT,117,AZ,33.4417,-112.1583,WECC,AZPS,West Phoenix CC5b,,,4.75,1.75,-1,18.078,18.078,9232.848375,30.332,1,1.6875,107.7625,64.3775,608.7129375,29.39325,8.852875,10.137625,2.6475,,,,,,,,,,16071,westphoenixcc5b,,14967,WPCC5CT2,Existing,AZPS,SW_AZPS,
Haynes,10,182.8,162.5,162.5,105,OP,2005,Gas_CC,Gas,CT,400,CA,33.764741,-118.09913,WECC,LDWP,Haynes 12CC12CC444,,,2.909090909,1.454545455,-1,55.23818182,55.23818182,9628.045636,387.8618182,1,0.870909091,188.4545455,76.89090909,841.7288,30.988,7.053181818,43.29690909,7.178181818,,,,,,,,,,17922,haynes12cc12cc444,,26026,HAYNES1G,Future-Planned,LDWP,CA_LDWP,
Haynes,9,182.8,162.5,162.5,105,OP,2005,Gas_CC,Gas,CT,400,CA,33.764741,-118.09913,WECC,LDWP,Haynes 12CC12CC444,,,2.909090909,1.454545455,-1,55.23818182,55.23818182,9628.045636,387.8618182,1,0.870909091,188.4545455,76.89090909,841.7288,30.988,7.053181818,43.29690909,7.178181818,,,,,,,,,,17922,haynes12cc12cc444,,26026,HAYNES1G,Future-Planned,LDWP,CA_LDWP,
Valley (CA),7,182.8,155,155,85,OP,2003,Gas_CC,Gas,CT,408,CA,34.244991,-118.391327,WECC,LDWP,Valley CC1b,,,4.333333333,1.666666667,-1,24.68,24.68,14195.40933,45.76666667,1,1.55,192.6666667,116.7373333,921.1415667,21.19833333,8.251,25.17566667,8.516333333,,,,,,,,,,16067,valleycc1b,,26149,VALLEY7G,Existing,LDWP,CA_LDWP,
Valley (CA),6,182.8,155,155,85,OP,2003,Gas_CC,Gas,CT,408,CA,34.244991,-118.391327,WECC,LDWP,Valley CC1b,,,4.333333333,1.666666667,-1,24.68,24.68,14195.40933,45.76666667,1,1.55,192.6666667,116.7373333,921.1415667,21.19833333,8.251,25.17566667,8.516333333,,,,,,,,,,16067,valleycc1b,,26149,VALLEY7G,Existing,LDWP,CA_LDWP,
Elkhorn Battery Energy Storage System,ELKHO,182.5,182.5,182.5,-182.5,OP,2022,Battery,,BA,62564,CA,36.808039,-121.781788,WECC,CISO,,,,,,,,,,,,,,,,,,,,,,,,,,,,,,,,,,,,,
Blythe Energy Inc,CT1,182,156.5,160.5,70,OP,2003,Gas_CC,Gas,CT,55295,CA,33.6157,-114.6865,WECC,CISO,Blythe CC1b,,,6,2,-1,14.7,14.7,19071.19,58.8,1,2.1,245,113.65,928.9688,43.783,5.504,43.784,5.984,,,,,,,,,,15909,blythecc1b,,29208,BLY1CT2,Existing,CISC,CA_CISO,
Blythe Energy Inc,CT2,182,156.5,160.5,70,OP,2003,Gas_CC,Gas,CT,55295,CA,33.6157,-114.6865,WECC,CISO,Blythe CC1b,,,6,2,-1,14.7,14.7,19071.19,58.8,1,2.1,245,113.65,928.9688,43.783,5.504,43.784,5.984,,,,,,,,,,15909,blythecc1b,,29208,BLY1CT2,Existing,CISC,CA_CISO,
"Broadview Energy JN, LLC",1,181.7,181.7,181.7,181.7,OP,2017,Wind,,WT,60145,NM,34.734179,-103.108047,WECC,GRIS,,,,,,,,,,,,,,,,,,,,,,,,,,,,,,,,,,,,,
Red Hawk,CT1B,181.6,148,166,75,OP,2002,Gas_CC,Gas,CT,55455,AZ,33.334562,-112.840641,WECC,SRP,Red Hawk CC2b,,,6,2,-1,14.613,14.613,18958.32,58.452,1,2.1,272.5,140,1063.626,88.3335,5.8765,22.083,3.144,,,,,,,,,,16039,redhawkcc2b,,14977,RED-CT4,Existing,TH_PV,SW_TH_PV,
Red Hawk,CT2A,181.6,148,166,75,OP,2002,Gas_CC,Gas,CT,55455,AZ,33.334562,-112.840641,WECC,SRP,Red Hawk CC2b,,,6,2,-1,14.613,14.613,18958.32,58.452,1,2.1,272.5,140,1063.626,88.3335,5.8765,22.083,3.144,,,,,,,,,,16039,redhawkcc2b,,14977,RED-CT4,Existing,TH_PV,SW_TH_PV,
Red Hawk,CT2B,181.6,148,161,75,OP,2002,Gas_CC,Gas,CT,55455,AZ,33.334562,-112.840641,WECC,SRP,Red Hawk CC2b,,,6,2,-1,14.613,14.613,18958.32,58.452,1,2.1,272.5,140,1063.626,88.3335,5.8765,22.083,3.144,,,,,,,,,,16039,redhawkcc2b,,14977,RED-CT4,Existing,TH_PV,SW_TH_PV,
Colusa Generating Station,B,181.5,167,181,110,OP,2010,Gas_CC,Gas,CT,56532,CA,39.3661,-122.27,WECC,CISO,Colusa CC1b,,,6,2,-1,20.352,20.352,26403.87,81.408,1,2.1,334,165,1206.83,33.167,6.054,33.166,6.083,,,,,,,,,,15927,colusacc1b,,31924,COLUSAPPCTG2,Existing,CIPV,CA_CISO,
Colusa Generating Station,A,181.5,167,181,110,OP,2010,Gas_CC,Gas,CT,56532,CA,39.3661,-122.27,WECC,CISO,Colusa CC1b,,,6,2,-1,20.352,20.352,26403.87,81.408,1,2.1,334,165,1206.83,33.167,6.054,33.166,6.083,,,,,,,,,,15927,colusacc1b,,31924,COLUSAPPCTG2,Existing,CIPV,CA_CISO,
Townsite Solar Project Hybrid,GEN01,180,160,130,0,OP,2021,Solar,Solar,PV,60654,NV,35.937336,-114.883999,WECC,WALC,,,,,,,,,,,,,,,,,,,,,,,,,,,,,,,,,,,,,
Rathdrum Power LLC,CTG1,179.4,150,172,115,OP,2001,Gas_CC,Gas,CT,55179,ID,47.7858,-116.9203,WECC,AVA,,,,,,,,,,,,,,,,,,,,,,,,,,,,,,,,,,,,,
Evander Andrews Power Complex,1,179.1,189.2,187.1,125.3,OP,2008,Gas_SC,Gas,CT,7953,ID,43.179176,-115.734315,WECC,IPCO,EvanderAndrews1,GT B_W251B12A,FALSE,1,1,-1,153.9,153.9,5122.825,774.63,1,0.45,50,40,466.2323,10,7.937,0,0,0,0,0,0,0,0,0,0,evanderandrews1,3407,evanderandrews1,ID-7953-1,60391,DNPR CT1,Existing,IPTV,BS_IPCO,7953
Klamath Cogeneration Plant,ST1,178.5,180,190,50,OP,2001,Gas_CC,Gas,CC,55103,OR,42.173889,-121.810556,WECC,AVRN,Klamath CG CC1b,,,6,2,-1,16.2,16.2,21017.23,64.8,1,2.1,270,150,1156.114,40,5.965,40,6.453,,,,,,,,,,15986,klamathcgcc1b,,45449,KLAMATH_CT2,Existing,PACW,NW_PACW,
Higgins Generating Station,A02,178,177,167,100,OP,2004,Gas_CC,Gas,CT,55687,NV,35.6139,-115.3561,WECC,NEVP,Higgins CC1b,,,6,2,-1,19.242,19.242,24963.8,76.968,1,2.1,320.7,133.87,1013.333,48.68,5.515,60.85,6.535,,,,,,,,,,15973,higginscc1b,,18409,HIGGINS1,Existing,NEVP,SW_NVE,
Higgins Generating Station,A01,178,177,167,100,OP,2004,Gas_CC,Gas,CT,55687,NV,35.6139,-115.3561,WECC,NEVP,Higgins CC1b,,,6,2,-1,19.242,19.242,24963.8,76.968,1,2.1,320.7,133.87,1013.333,48.68,5.515,60.85,6.535,,,,,,,,,,15973,higginscc1b,,18409,HIGGINS1,Existing,NEVP,SW_NVE,
Afton Generating Station,1,177,144,156,80,OP,2002,Gas_CC,Gas,CT,55210,NM,32.114185,-106.846483,WECC,PNM,Afton CC,,,6,2,-1,14.91,14.91,19343.64,59.64,1,2.1,250,150,1135.859,23.333,4.92,23.334,6.182,,,,,,,,,,13243,aftoncc,,10485,AFTONS,Existing,PNM,SW_PNM,
FPL Energy Vansycle LLC (WA),V-47,176.9,176.9,176.9,15,OP,2001,Wind,,WT,55560,WA,46.06,-118.917,WECC,BPAT,,,,,,,,,,,,,,,,,,,,,,,,,,,,,,,,,,,,,
Griffith Energy LLC,CTG1,176.6,147,147,75,OP,2002,Gas_CC,Gas,CT,55124,AZ,35.054029,-114.133272,WECC,GRIF,Griffith CC1b,,,6,2,-1,17.724,17.724,22994.41,70.896,1,2.1,299,132.5,989.7137,36.5,5.286,36.5,5.984,,,,,,,,,,15963,griffithcc1b,,19312,GRIFFTH2,Existing,WALC,SW_WALC,
Griffith Energy LLC,CTG2,176.6,147,147,75,OP,2002,Gas_CC,Gas,CT,55124,AZ,35.054029,-114.133272,WECC,GRIF,Griffith CC1b,,,6,2,-1,17.724,17.724,22994.41,70.896,1,2.1,299,132.5,989.7137,36.5,5.286,36.5,5.984,,,,,,,,,,15963,griffithcc1b,,19312,GRIFFTH2,Existing,WALC,SW_WALC,
Beaver,7,176.4,137,139,10,OP,1977,Gas_CC,Gas,CC,8073,OR,46.172401,-123.17392,WECC,PGE,Beaver CC1c,,,4.75,1.75,-1,7.76295425,7.76295425,9638.269,29.94938,1,1.715,125.29925,56.28925,871.13525,19.549,7.85625,16.48725,5.868,,,,,,,,,,15907,beavercc1c,,43023,BEAVER3,Existing,PGE,NW_PGE,
Fort St Vrain,2,175.1,123,134,65,OP,1996,Gas_CC,Gas,CT,6112,CO,40.2461,-104.8742,WECC,PSCO,Fort St Vrain CC1c,,,4,1.6,-1,13.25012,13.25012,12763.9554,41.73248,1,1.484,208,112,1004.28454,24.1998,6.4466,24.2004,6.8512,,,,,,,,,,15947,fortstvraincc1c,,70408,ST.VR_4,Existing,PSCO,RM_PSCO,
Fort St Vrain,3,175.1,128,139,65,OP,1999,Gas_CC,Gas,CT,6112,CO,40.2461,-104.8742,WECC,PSCO,Fort St Vrain CC1c,,,4,1.6,-1,13.25012,13.25012,12763.9554,41.73248,1,1.484,208,112,1004.28454,24.1998,6.4466,24.2004,6.8512,,,,,,,,,,15947,fortstvraincc1c,,70408,ST.VR_4,Existing,PSCO,RM_PSCO,
Rocky Mountain Energy Center,CTG2,175.1,145,157,82,OP,2004,Gas_CC,Gas,CT,55835,CO,40.0908,-104.5953,WECC,PSCO,Rocky Mtn CC1b,,,8,2,-1,17.105,17.105,27096.11,74.64,1,1.8,312.5,122.5,974.2799,110.5,6.154,79.5,8.5,,,,,,,,,,16047,rockymtncc1b,,70589,RMEC2,Existing,PSCO,RM_PSCO,
Rocky Mountain Energy Center,CTG1,175.1,145,157,82,OP,2004,Gas_CC,Gas,CT,55835,CO,40.0908,-104.5953,WECC,PSCO,Rocky Mtn CC1b,,,8,2,-1,17.105,17.105,27096.11,74.64,1,1.8,312.5,122.5,974.2799,110.5,6.154,79.5,8.5,,,,,,,,,,16047,rockymtncc1b,,70589,RMEC2,Existing,PSCO,RM_PSCO,
Fort St Vrain,4,175.1,145,168,65,OP,2001,Gas_CC,Gas,CT,6112,CO,40.2461,-104.8742,WECC,PSCO,Fort St Vrain CC1c,,,4,1.6,-1,13.25012,13.25012,12763.9554,41.73248,1,1.484,208,112,1004.28454,24.1998,6.4466,24.2004,6.8512,,,,,,,,,,15947,fortstvraincc1c,,70408,ST.VR_4,Existing,PSCO,RM_PSCO,
Luna Energy Facility,CTG1,175,150.5,164.5,80,OP,2006,Gas_CC,Gas,CT,55343,NM,32.299349,-107.7834,WECC,PNM,Luna CC1b,,,6,2,-1,17.88,17.88,23196.8,71.52,1,2.1,300,137.5,1085.187,34.333,5.266,34.334,6.173,,,,,,,,,,16005,lunacc1b,,10395,LEF_G2,Existing,PNM,SW_PNM,
Luna Energy Facility,CTG2,175,150.5,164.5,80,OP,2006,Gas_CC,Gas,CT,55343,NM,32.299349,-107.7834,WECC,PNM,Luna CC1b,,,6,2,-1,17.88,17.88,23196.8,71.52,1,2.1,300,137.5,1085.187,34.333,5.266,34.334,6.173,,,,,,,,,,16005,lunacc1b,,10395,LEF_G2,Existing,PNM,SW_PNM,
Gila River Power Block 4,CTG8,174,164,184,70,OP,2003,Gas_CC,Gas,CT,55306,AZ,32.975,-112.6944,WECC,SRP,Gila River CC3b,,,6,2,-1,16.5,16.5,21406.44,66,1,2.1,305,170,1252.629,31,5.145,31,5.761,,,,,,,,,,15957,gilarivercc3b,,159978,GIL-CT4B,Existing,SRP,SW_SRP,
Apex Generating Station,CTG1,174,164.6,181.6,90,OP,2003,Gas_CC,Gas,CT,55514,NV,36.415999,-114.960916,WECC,NEVP,Apex CC1b,,,6,2,-1,16.161,16.161,20966.63,64.644,1,2.1,275,145,1071.698,35.167,5.975,35.166,6.15,,,,,,,,,,15900,apexcc1b,,26233,APEXGT1B,Existing,LDWP,CA_LDWP,
Apex Generating Station,CTG2,174,164.6,181.6,90,OP,2003,Gas_CC,Gas,CT,55514,NV,36.415999,-114.960916,WECC,NEVP,Apex CC1b,,,6,2,-1,16.161,16.161,20966.63,64.644,1,2.1,275,145,1071.698,35.167,5.975,35.166,6.15,,,,,,,,,,15900,apexcc1b,,26233,APEXGT1B,Existing,LDWP,CA_LDWP,
Gila River Power Block 1,CTG1,174,164,184,70,OP,2003,Gas_CC,Gas,CT,59338,AZ,32.975,-112.694444,WECC,SRP,Gila River CC1b,,,6,2,-1,17.7,17.7,22963.27,70.8,1,2.1,299,170,1262.326,31,5.085,31,5.657,,,,,,,,,,15953,gilarivercc1b,,159972,GIL-CT1B,Existing,SRP,SW_SRP,
Gila River Power Block 2,CTG3,174,164,184,70,OP,2003,Gas_CC,Gas,CT,60768,AZ,32.975,-112.694444,WECC,SRP,Gila River CC2b,,,6,2,-1,16.5,16.5,21406.44,66,1,2.1,300,170,1246.015,29.667,5.079,29.666,5.789,,,,,,,,,,15955,gilarivercc2b,,159974,GIL-CT2B,Existing,SRP,SW_SRP,
Gila River Power Block 4,CTG7,174,164,184,70,OP,2003,Gas_CC,Gas,CT,55306,AZ,32.975,-112.6944,WECC,SRP,Gila River CC3b,,,6,2,-1,16.5,16.5,21406.44,66,1,2.1,305,170,1252.629,31,5.145,31,5.761,,,,,,,,,,15957,gilarivercc3b,,159978,GIL-CT4B,Existing,SRP,SW_SRP,
Gila River Power Block 3,CTG5,174,164,184,70,OP,2003,Gas_CC,Gas,CT,59784,AZ,32.975,-112.6944,WECC,TEPC,Gila River CC4b,,,6,2,-1,18,18,23352.48,72,1,2.1,305,170,1259.478,29,5.294,29,5.611,,,,,,,,,,15959,gilarivercc4b,,159976,GIL-CT3B,Existing,SRP,SW_SRP,
Gila River Power Block 2,CTG4,174,164,184,70,OP,2003,Gas_CC,Gas,CT,60768,AZ,32.975,-112.694444,WECC,SRP,Gila River CC2b,,,6,2,-1,16.5,16.5,21406.44,66,1,2.1,300,170,1246.015,29.667,5.079,29.666,5.789,,,,,,,,,,15955,gilarivercc2b,,159974,GIL-CT2B,Existing,SRP,SW_SRP,
Gila River Power Block 1,CTG2,174,164,184,70,OP,2003,Gas_CC,Gas,CT,59338,AZ,32.975,-112.694444,WECC,SRP,Gila River CC1b,,,6,2,-1,17.7,17.7,22963.27,70.8,1,2.1,299,170,1262.326,31,5.085,31,5.657,,,,,,,,,,15953,gilarivercc1b,,159972,GIL-CT1B,Existing,SRP,SW_SRP,
Gila River Power Block 3,CTG6,174,164,184,70,OP,2003,Gas_CC,Gas,CT,59784,AZ,32.975,-112.6944,WECC,TEPC,Gila River CC4b,,,6,2,-1,18,18,23352.48,72,1,2.1,305,170,1259.478,29,5.294,29,5.611,,,,,,,,,,15959,gilarivercc4b,,159976,GIL-CT3B,Existing,SRP,SW_SRP,
H Wilson Sundt Generating Station,4,173.3,156,156,26,OP,1967,Gas_SC,Gas,CT,126,AZ,32.16,-110.9047,WECC,TEPC,H Wilson Sundt 4 Gas,ST-NG,FALSE,4,2,-1,15.6,15.6,10717.97,1391.52,1,0.29,156,40,472.618,23.2,9.023,34.8,9.538,58,10.364,0,0,0,0,0,0,hwilsonsundt4gas,14120,hwilsonsundt4gas,AZ-126-4,160926,SUNDT_GEN4,Existing,TEPC,SW_TEPC,126
High Desert Power Plant,CTG1,173,162.3,174.8,110,OP,2003,Gas_CC,Gas,CT,55518,CA,34.5953,-117.3647,WECC,CISO,High Desert CC1c,,,6,2,-1,15.94998,15.94998,20692.87,63.8,1,2.1,267,166.667,1230.158,33.444,6.017,33.445,6.723,,,,,,,,,,15976,highdesertcc1c,,29003,HIDEDCT1,Existing,CISC,CA_CISO,
High Desert Power Plant,CTG2,173,161.1,172.6,110,OP,2003,Gas_CC,Gas,CT,55518,CA,34.5953,-117.3647,WECC,CISO,High Desert CC1c,,,6,2,-1,15.94998,15.94998,20692.87,63.8,1,2.1,267,166.667,1230.158,33.444,6.017,33.445,6.723,,,,,,,,,,15976,highdesertcc1c,,29003,HIDEDCT1,Existing,CISC,CA_CISO,
High Desert Power Plant,CTG3,173,162.2,177.4,110,OP,2003,Gas_CC,Gas,CT,55518,CA,34.5953,-117.3647,WECC,CISO,High Desert CC1c,,,6,2,-1,15.94998,15.94998,20692.87,63.8,1,2.1,267,166.667,1230.158,33.444,6.017,33.445,6.723,,,,,,,,,,15976,highdesertcc1c,,29003,HIDEDCT1,Existing,CISC,CA_CISO,
Bennett Mountain,1,172.8,203.9,170.4,120.9,OP,2005,Gas_SC,Gas,CT,55733,ID,43.147153,-115.666637,WECC,IPCO,BennettMountain,GT F_501F,FALSE,1,1,-1,147.6,147.6,4913.119,742.92,1,0.45,195,120,1360.061,25,7.761,25,7.761,25,7.761,0,0,0,0,0,0,bennettmountain,3408,bennettmountain,ID-55733-1,60397,BTMT CT1,Existing,IPTV,BS_IPCO,55733
Currant Creek,CT1A,172,135,143,75,OP,2005,Gas_CC,Gas,CT,56102,UT,39.82144,-111.89345,WECC,PACE,Currant Creek CC1b,,,6,2,-1,15.891,15.891,20616.35,63.564,1,2.1,277.5,136,1035.962,27.933,5.583,27.934,6.016,,,,,,,,,,15931,currantcreekcc1b,,65392,CURRNTC2,Existing,PAUT,BS_PACE,
Currant Creek,CT1B,172,135,143,75,OP,2005,Gas_CC,Gas,CT,56102,UT,39.82144,-111.89345,WECC,PACE,Currant Creek CC1b,,,6,2,-1,15.891,15.891,20616.35,63.564,1,2.1,277.5,136,1035.962,27.933,5.583,27.934,6.016,,,,,,,,,,15931,currantcreekcc1b,,65392,CURRNTC2,Existing,PAUT,BS_PACE,
"Mountain Breeze Wind, LLC",MTBRZ,171.7,171.7,171.7,0.1,OP,2020,Wind,,WT,62840,CO,40.960618,-104.003174,WECC,PSCO,,,,,,,,,,,,,,,,,,,,,,,,,,,,,,,,,,,,,
Port Westward,2,171,136,138.5,94.5,OP,2007,Gas_CC,Gas,CC,56227,OR,46.17894,-123.172039,WECC,PGE,,,,,,,,,,,,,,,,,,,,,,,,,,,,,,,,,,,,,
Desert Star Energy Center,ED01,170.9,140,150,84,OP,2000,Gas_CC,Gas,CT,55077,NV,35.788889,-114.994167,WECC,CISO,Desert Star CC1b,,,6,2,-1,14.73,14.73,19110.11,58.92,1,2.1,245.5,145,1111.967,100.5,6.396,0,0,,,,,,,,,,15940,desertstarcc1b,,25102,DSEC CT2,Existing,CISC,CA_CISO,
Desert Star Energy Center,ED02,170.9,140,150,84,OP,2000,Gas_CC,Gas,CT,55077,NV,35.788889,-114.994167,WECC,CISO,Desert Star CC1b,,,6,2,-1,14.73,14.73,19110.11,58.92,1,2.1,245.5,145,1111.967,100.5,6.396,0,0,,,,,,,,,,15940,desertstarcc1b,,25102,DSEC CT2,Existing,CISC,CA_CISO,
Coyote Springs II,1,170,173,207,65,OP,2003,Gas_CC,Gas,CT,7931,OR,45.848039,-119.673965,WECC,BPAT,,,,,,,,,,,,,,,,,,,,,,,,,,,,,,,,,,,,,
Kyrene,KY7,170,148,167,90,OP,2002,Gas_CC,Gas,CT,147,AZ,33.3556,-111.9353,WECC,SRP,Kyrene 6,,,2.25,1.25,-1,8.085025,8.085025,7519.50175,24.78,1,0.945,111.25025,48.35675,460.228,37.97675,8.936,5.3335,1.4675,,,,,,,,,,14124,kyrene6,,15916,KYRENE 6,Existing,SRP,SW_SRP,
Cosumnes,3,170,189,201,160,OP,2006,Gas_CC,Gas,CT,55970,CA,38.338475,-121.123978,WECC,BANC,Cosumnes CC1b,,,6,2,-1,16.038,16.038,20807.06,64.152,1,2.1,265,155,1183.792,36.667,5.274,36.666,5.87,,,,,,,,,,15929,cosumnescc1b,,37322,COSUMNE2,Existing,BANC,CA_BANC,
"Pastoria Energy Facility, LLC",CT04,168,171,181,85,OP,2005,Gas_CC,Gas,CT,55656,CA,34.9556,-118.844,WECC,CISO,Pastoria CC1b,,,6,2,-1,14.76,14.76,19149.03,59.04,1,2.1,129.5,71,540.157,19.5,5.435,19.5,6.047,,,,,,,,,,16035,pastoriacc1b,,29052,PSTRIAG2,Existing,CISC,CA_CISO,
"Pastoria Energy Facility, LLC",CT02,168,173,183,90,OP,2005,Gas_CC,Gas,CT,55656,CA,34.9556,-118.844,WECC,CISO,Pastoria CC1b,,,6,2,-1,14.76,14.76,19149.03,59.04,1,2.1,129.5,71,540.157,19.5,5.435,19.5,6.047,,,,,,,,,,16035,pastoriacc1b,,29052,PSTRIAG2,Existing,CISC,CA_CISO,
"Pastoria Energy Facility, LLC",CT01,168,175,185,90,OP,2005,Gas_CC,Gas,CT,55656,CA,34.9556,-118.844,WECC,CISO,Pastoria CC1b,,,6,2,-1,14.76,14.76,19149.03,59.04,1,2.1,129.5,71,540.157,19.5,5.435,19.5,6.047,,,,,,,,,,16035,pastoriacc1b,,29052,PSTRIAG2,Existing,CISC,CA_CISO,
Alta Wind Energy Center V,AW05,168,168,168,0,OP,2011,Wind,,WT,57294,CA,35.008611,-118.242222,WECC,CISO,,,,,,,,,,,,,,,,,,,,,,,,,,,,,,,,,,,,,
Pinyon Pine I,AW07,168,168,168,1,OP,2012,Wind,,WT,57834,CA,35.043411,-118.211835,WECC,CISO,,,,,,,,,,,,,,,,,,,,,,,,,,,,,,,,,,,,,
Harry Allen,6,167.5,151.6,164,90,OP,2011,Gas_CC,Gas,CT,7082,NV,36.430554,-114.902405,WECC,NEVP,Harry Allen CC1b,,,3.5,1.5,-1,40.2255,40.2255,11230.9795,194.382,1,1.275,167.5,106,931.599725,22.6665,6.91525,19.417,3.0225,,,,,,,,,,15967,harryallencc1b,,18427,HA CC2,Existing,NEVP,SW_NVE,
Harry Allen,5,167.5,151.6,164,90,OP,2011,Gas_CC,Gas,CT,7082,NV,36.430554,-114.902405,WECC,NEVP,Harry Allen CC1b,,,3.5,1.5,-1,40.2255,40.2255,11230.9795,194.382,1,1.275,167.5,106,931.599725,22.6665,6.91525,19.417,3.0225,,,,,,,,,,15967,harryallencc1b,,18427,HA CC2,Existing,NEVP,SW_NVE,
Tracy Combined Cycle Power Plant,TCC1,167.3,156.2,167.3,30,OP,2012,Gas_CC,Gas,CC,55933,CA,37.7107,-121.4906,WECC,CISO,Tracy CA CC1b,,,6,2,-1,10.119,10.119,13127.99,40.476,1,2.1,170,100,800.5886,8.5,7.264,17,7.635,,,,,,,,,,16063,tracycacc1b,,33807,GWFTRCY2,Existing,CIPV,CA_CISO,
Rio Grande,8,166.5,139,147,44,OP,1972,Gas_SC,Gas,CT,2444,NM,31.8047,-106.5472,WECC,EPE,RioGrande9,,,1,1,-1,79.11,79.11,2633.312,453,1,0.45,95,50,511.5442,15,6.233,30,7.334,,,,,,,,,,4109,riogrande9,,11226,RIOGD_G9,Existing,EPE,SW_EPE,
Palomar Energy,CTG2,165,179.8,181,65,OP,2005,Gas_CC,Gas,CT,55985,CA,33.1197,-117.117778,WECC,CISO,Palomar CC1b,,,6,2,-1,16.86,16.86,21873.49,67.44,1,2.1,285,145,1086.134,39.667,5.718,39.666,6.078,,,,,,,,,,16033,palomarcc1b,,22263,PEN_CT2,Existing,CISD,CA_CISO,
Palomar Energy,CTG1,165,179.6,180,65,OP,2005,Gas_CC,Gas,CT,55985,CA,33.1197,-117.117778,WECC,CISO,Palomar CC1b,,,6,2,-1,16.86,16.86,21873.49,67.44,1,2.1,285,145,1086.134,39.667,5.718,39.666,6.078,,,,,,,,,,16033,palomarcc1b,,22263,PEN_CT2,Existing,CISD,CA_CISO,
Glen Canyon Dam,1,165,165,165,0,OP,1964,Hydro,,HY,153,AZ,36.936614,-111.483872,WECC,WALC,,,,,,,,,,,,,,,,,,,,,,,,,,,,,,,,,,,,,
Glen Canyon Dam,2,165,165,165,0,OP,1964,Hydro,,HY,153,AZ,36.936614,-111.483872,WECC,WALC,,,,,,,,,,,,,,,,,,,,,,,,,,,,,,,,,,,,,
Glen Canyon Dam,3,165,165,165,0,OP,1964,Hydro,,HY,153,AZ,36.936614,-111.483872,WECC,WALC,,,,,,,,,,,,,,,,,,,,,,,,,,,,,,,,,,,,,
Glen Canyon Dam,4,165,165,165,0,OP,1965,Hydro,,HY,153,AZ,36.936614,-111.483872,WECC,WALC,,,,,,,,,,,,,,,,,,,,,,,,,,,,,,,,,,,,,
Glen Canyon Dam,5,165,165,165,0,OP,1965,Hydro,,HY,153,AZ,36.936614,-111.483872,WECC,WALC,,,,,,,,,,,,,,,,,,,,,,,,,,,,,,,,,,,,,
Glen Canyon Dam,6,165,165,165,0,OP,1965,Hydro,,HY,153,AZ,36.936614,-111.483872,WECC,WALC,,,,,,,,,,,,,,,,,,,,,,,,,,,,,,,,,,,,,
Glen Canyon Dam,8,165,165,165,0,OP,1966,Hydro,,HY,153,AZ,36.936614,-111.483872,WECC,WALC,,,,,,,,,,,,,,,,,,,,,,,,,,,,,,,,,,,,,
La Joya NM,LAJ1,165,165,165,0,OP,2021,Wind,,WT,61044,NM,34.81,-105.74,WECC,PNM,,,,,,,,,,,,,,,,,,,,,,,,,,,,,,,,,,,,,
Mountainview Generating Station,MV4A,164.6,156,182,60,OP,2006,Gas_CC,Gas,CT,358,CA,34.0818,-117.2418,WECC,CISO,Mtnview CC4b,,,6,2,-1,15.75,15.75,20433.42,63,1,2.1,271.5,135,1037.7275,45.5,5.442,45.5,5.9625,,,,,,,,,,16021,mtnviewcc4b,,24925,MNTV-G4B,Existing,CISC,CA_CISO,
Mountainview Generating Station,MV4B,164.6,156,182,60,OP,2006,Gas_CC,Gas,CT,358,CA,34.0818,-117.2418,WECC,CISO,Mtnview CC4b,,,6,2,-1,15.75,15.75,20433.42,63,1,2.1,271.5,135,1037.7275,45.5,5.442,45.5,5.9625,,,,,,,,,,16021,mtnviewcc4b,,24925,MNTV-G4B,Existing,CISC,CA_CISO,
Mountainview Generating Station,MV3B,164.6,156,182,60,OP,2005,Gas_CC,Gas,CT,358,CA,34.0818,-117.2418,WECC,CISO,Mtnview CC4b,,,6,2,-1,15.75,15.75,20433.42,63,1,2.1,271.5,135,1037.7275,45.5,5.442,45.5,5.9625,,,,,,,,,,16021,mtnviewcc4b,,24925,MNTV-G4B,Existing,CISC,CA_CISO,
Mountainview Generating Station,MV3A,164.6,156,182,60,OP,2005,Gas_CC,Gas,CT,358,CA,34.0818,-117.2418,WECC,CISO,Mtnview CC4b,,,6,2,-1,15.75,15.75,20433.42,63,1,2.1,271.5,135,1037.7275,45.5,5.442,45.5,5.9625,,,,,,,,,,16021,mtnviewcc4b,,24925,MNTV-G4B,Existing,CISC,CA_CISO,
Biglow Canyon Wind Farm,2,163.3,163.3,163.3,0,OP,2009,Wind,,WT,56485,OR,45.653745,-120.603414,WECC,PGE,,,,,,,,,,,,,,,,,,,,,,,,,,,,,,,,,,,,,
Scattergood,1,163.2,105,105,40,OP,1958,Gas_SC,Gas,CT,404,CA,33.918151,-118.427648,WECC,LDWP,Scattergood CC3,,,2,1.2,-0.6,16.68804,16.68804,10648.4568,29.944,0.6,0.808,220.0004,82.474,772.1592,52.5028,5.7188,58.4484,6.2212,,,,,,,,,,19324,scattergoodcc3,,26157,SCATT4G,Future-Planned,LDWP,CA_LDWP,
AES Redondo Beach LLC,5,163.2,175,178.9,10,OP,1954,Gas_SC,Gas,CT,356,CA,33.8504,-118.395,WECC,CISO,RedondoBeach5,ST-NG,FALSE,4,2,-1,17.695,17.695,12157.34,1578.394,1,0.29,178.9,10.165,305.6997,33.747,6.617,50.62,7.616,84.368,9.215,0,0,0,0,0,0,redondobeach5,942,redondobeach5,CA-356-5,24121,REDON5 G,Existing,CISC,CA_CISO,356
AES Redondo Beach LLC,6,163.2,175,175,10,OP,1957,Gas_SC,Gas,CT,356,CA,33.8504,-118.395,WECC,CISO,RedondoBeach6,ST-NG,FALSE,4,2,-1,17.5,17.5,12023.37,1561,1,0.29,175,10,305.6997,33,6.724,49.5,7.733,82.5,9.348,0,0,0,0,0,0,redondobeach6,941,redondobeach6,CA-356-6,24122,REDON6 G,Existing,CISC,CA_CISO,356
Agua Fria,AF3,163.2,181,184,181,OP,1961,Oil,Oil,CT,141,AZ,33.5561,-112.2153,WECC,SRP,Agua Fria 3,ST-NG,FALSE,4,2,-1,18.25,18.25,12538.66,1627.9,1,0.29,184,60,645.1573,24.8,9.245,37.2,9.349,62,9.514,0,0,0,0,0,0,aguafria3,13364,aguafria3,AZ-141-AF3,15903,AGUAFR 3,Existing,SRP,SW_SRP,141
Scattergood,2,163.2,156.3,156.3,40,OP,1959,Gas_SC,Gas,CT,404,CA,33.918151,-118.427648,WECC,LDWP,Scattergood CC3,,,2,1.2,-0.6,16.68804,16.68804,10648.4568,29.944,0.6,0.808,220.0004,82.474,772.1592,52.5028,5.7188,58.4484,6.2212,,,,,,,,,,19324,scattergoodcc3,,26157,SCATT4G,Future-Planned,LDWP,CA_LDWP,
Colorado Green Holdings LLC,CG,162,162,162,0,OP,2003,Wind,,WT,56173,CO,37.7033,-102.6231,WECC,PSCO,,,,,,,,,,,,,,,,,,,,,,,,,,,,,,,,,,,,,
North Sky River Energy LLC,GEN1,162,162,162,8,OP,2012,Wind,,WT,58154,CA,35.347778,-118.186389,WECC,CISO,,,,,,,,,,,,,,,,,,,,,,,,,,,,,,,,,,,,,
Ocotillo,GT7,161.9,104.7,105.8,45,OP,2019,Gas_SC,Gas,CT,116,AZ,33.4225,-111.9122,WECC,AZPS,Ocotillo GT7,GT LMS_LMS100,FALSE,1,1,-1,94.23,94.23,3136.607,474.291,1,0.45,104.7,52.35,548.001,17.433,6.729,34.917,7.033,0,0,0,0,0,0,0,0,ocotillogt7,13303,ocotillogt7,AZ-116-GT7,14930,OCOGT7,Future-Planned,AZPS,SW_AZPS,116
Ocotillo,GT5,161.9,104.7,105.8,45,OP,2019,Gas_SC,Gas,CT,116,AZ,33.4225,-111.9122,WECC,AZPS,Ocotillo GT5,GT LMS_LMS100,FALSE,1,1,-1,94.23,94.23,3136.607,474.291,1,0.45,104.7,52.35,548.001,17.433,6.729,34.917,7.033,0,0,0,0,0,0,0,0,ocotillogt5,13301,ocotillogt5,AZ-116-GT5,14928,OCOGT5,Future-Planned,AZPS,SW_AZPS,116
Ocotillo,GT3,161.9,104.7,105.8,45,OP,2019,Gas_SC,Gas,CT,116,AZ,33.4225,-111.9122,WECC,AZPS,Ocotillo GT3,GT LMS_LMS100,FALSE,1,1,-1,94.23,94.23,3136.607,474.291,1,0.45,110,23,299.3933,29,9.328,58,10.419,0,0,0,0,0,0,0,0,ocotillogt3,13299,ocotillogt3,AZ-116-GT3,14926,OCOGT3,Future-Planned,AZPS,SW_AZPS,116
Ocotillo,GT4,161.9,104.7,105.8,45,OP,2019,Gas_SC,Gas,CT,116,AZ,33.4225,-111.9122,WECC,AZPS,Ocotillo GT4,GT LMS_LMS100,FALSE,1,1,-1,94.23,94.23,3136.607,474.291,1,0.45,110,23,345.2092,29,10.022,58,11.072,0,0,0,0,0,0,0,0,ocotillogt4,13300,ocotillogt4,AZ-116-GT4,14927,OCOGT4,Future-Planned,AZPS,SW_AZPS,116
Ocotillo,GT6,161.9,104.7,105.8,45,OP,2019,Gas_SC,Gas,CT,116,AZ,33.4225,-111.9122,WECC,AZPS,Ocotillo GT6,GT LMS_LMS100,FALSE,1,1,-1,94.23,94.23,3136.607,474.291,1,0.45,104.7,52.35,548.001,17.433,6.729,34.917,7.033,0,0,0,0,0,0,0,0,ocotillogt6,13302,ocotillogt6,AZ-116-GT6,14929,OCOGT6,Future-Planned,AZPS,SW_AZPS,116
Klamath Cogeneration Plant,CT2,161.5,155,184,90,OP,2001,Gas_CC,Gas,CT,55103,OR,42.173889,-121.810556,WECC,AVRN,Klamath CG CC1b,,,6,2,-1,16.2,16.2,21017.23,64.8,1,2.1,270,150,1156.114,40,5.965,40,6.453,,,,,,,,,,15986,klamathcgcc1b,,45449,KLAMATH_CT2,Existing,PACW,NW_PACW,
Klamath Cogeneration Plant,CT1,161.5,155,184,90,OP,2001,Gas_CC,Gas,CT,55103,OR,42.173889,-121.810556,WECC,AVRN,Klamath CG CC1b,,,6,2,-1,16.2,16.2,21017.23,64.8,1,2.1,270,150,1156.114,40,5.965,40,6.453,,,,,,,,,,15986,klamathcgcc1b,,45449,KLAMATH_CT2,Existing,PACW,NW_PACW,
Boundary,52,161.5,161.5,161.5,0,OP,1967,Hydro,,HY,6433,WA,48.987111,-117.347847,WECC,SCL,,,,,,,,,,,,,,,,,,,,,,,,,,,,,,,,,,,,,
Boundary,54,161.5,161.5,161.5,0,OP,1967,Hydro,,HY,6433,WA,48.987111,-117.347847,WECC,SCL,,,,,,,,,,,,,,,,,,,,,,,,,,,,,,,,,,,,,
Biglow Canyon Wind Farm,3,161,161,161,0,OP,2010,Wind,,WT,56485,OR,45.653745,-120.603414,WECC,PGE,,,,,,,,,,,,,,,,,,,,,,,,,,,,,,,,,,,,,
"Sun Streams, LLC",GEN01,160,160,160,0,OP,2020,Solar,Solar,PV,60827,AZ,33.34884,-112.8348,WECC,CISO,,,,,,,,,,,,,,,,,,,,,,,,,,,,,,,,,,,,,
"Rancho Seco Solar II, LLC",RSS2,160,160,160,0,OP,2021,Solar,Solar,PV,63387,CA,38.346814,-121.119839,WECC,BANC,,,,,,,,,,,,,,,,,,,,,,,,,,,,,,,,,,,,,
Valencia Energy Facility,CTG1,159.5,144.3,150.2,80,OP,2008,Gas_SC,Gas,CT,55802,NM,34.611549,-106.732234,WECC,PNM,Valencia NM 1,GT F_7FA,FALSE,1,1,-1,14.5,14.5,8559.297,31.9,1,0.56,158,80,1002.749,26,6.754,26,7.512,26,8.269,0,0,0,0,0,0,valencianm1,13249,valencianm1,NM-55802-CTG1,10903,VEF,Existing,PNM,SW_PNM,55802
Boundary,51,158.4,158.4,158.4,0,OP,1967,Hydro,,HY,6433,WA,48.987111,-117.347847,WECC,SCL,,,,,,,,,,,,,,,,,,,,,,,,,,,,,,,,,,,,,
Boundary,53,158.4,158.4,158.4,0,OP,1967,Hydro,,HY,6433,WA,48.987111,-117.347847,WECC,SCL,,,,,,,,,,,,,,,,,,,,,,,,,,,,,,,,,,,,,
Colgate,1,157.5,176.7,176.7,0,OP,1969,Hydro,,HY,454,CA,39.330833,-121.191666,WECC,CISO,,,,,,,,,,,,,,,,,,,,,,,,,,,,,,,,,,,,,
Colgate,2,157.5,175.7,175.7,0,OP,1969,Hydro,,HY,454,CA,39.330833,-121.191666,WECC,CISO,,,,,,,,,,,,,,,,,,,,,,,,,,,,,,,,,,,,,
Glen Canyon Dam,7,157,157,157,0,OP,1966,Hydro,,HY,153,AZ,36.936614,-111.483872,WECC,WALC,,,,,,,,,,,,,,,,,,,,,,,,,,,,,,,,,,,,,
Marengo Wind Plant,1,156,156,156,0,OP,2007,Wind,,WT,56466,WA,46.3747,-117.7772,WECC,PACW,,,,,,,,,,,,,,,,,,,,,,,,,,,,,,,,,,,,,
Tracy,9,155.6,162,167,100,OP,2008,Gas_CC,Gas,CT,2336,NV,39.5625,-119.525,WECC,NEVP,Tracy NV CC2b,,,3.833333333,1.5,-1,10.52683333,10.52683333,10965.29933,198.7346667,1,1.28,154.1666667,73.83333333,693.9813667,22.7555,7.602833333,30.41116667,8.346833333,,,,,,,,,,16065,tracynvcc2b,,64953,TRACY W9,Existing,SPPC,SW_NVE,
Tracy,8,155.6,162,167,100,OP,2008,Gas_CC,Gas,CT,2336,NV,39.5625,-119.525,WECC,NEVP,Tracy NV CC2b,,,3.833333333,1.5,-1,10.52683333,10.52683333,10965.29933,198.7346667,1,1.28,154.1666667,73.83333333,693.9813667,22.7555,7.602833333,30.41116667,8.346833333,,,,,,,,,,16065,tracynvcc2b,,64953,TRACY W9,Existing,SPPC,SW_NVE,
Springbok Solar Farm 2,SB2,155,155,155,0,OP,2016,Solar,Solar,PV,59840,CA,35.250031,-117.976847,WECC,LDWP,,,,,,,,,,,,,,,,,,,,,,,,,,,,,,,,,,,,,
Edwards Sanborn E1B,PV,154.4,154.4,154.4,0,OP,2022,Solar,Solar,PV,65674,CA,35.992392,-118.102586,WECC,CISO,,,,,,,,,,,,,,,,,,,,,,,,,,,,,,,,,,,,,
Front Range Power Plant,2,153.9,135,140,65,OP,2003,Gas_CC,Gas,CT,55283,CO,38.6281,-104.7069,WECC,WACM,Front Range CC1b,,,6,2,-1,14.73,14.73,19110.11,58.92,1,2.1,250,96.255,786.7819,37.082,5.504,37.081,5.984,,,,,,,,,,15949,frontrangecc1b,,78518,FTRNG2CC,Existing,PSCO,RM_PSCO,
Front Range Power Plant,1,153.9,135,140,65,OP,2003,Gas_CC,Gas,CT,55283,CO,38.6281,-104.7069,WECC,WACM,Front Range CC1b,,,6,2,-1,14.73,14.73,19110.11,58.92,1,2.1,250,96.255,786.7819,37.082,5.504,37.081,5.984,,,,,,,,,,15949,frontrangecc1b,,78518,FTRNG2CC,Existing,PSCO,RM_PSCO,
Santan,ST5B,153.8,151,203,90,OP,2005,Gas_CC,Gas,CT,8068,AZ,33.3325,-111.7503,WECC,SRP,Santan CC5b,,,6,2,-1,10.68428571,10.68428571,13861.36429,42.73714286,1,2.1,179.5357143,102.6521429,874.6335714,18.91814286,6.011142857,25.19714286,6.616714286,,,,,,,,,,16051,santancc5b,,15928,SANTN 5B,Existing,SRP,SW_SRP,
Santan,ST6A,153.8,151,195,90,OP,2006,Gas_CC,Gas,CT,8068,AZ,33.3325,-111.7503,WECC,SRP,Santan CC5b,,,6,2,-1,10.68428571,10.68428571,13861.36429,42.73714286,1,2.1,179.5357143,102.6521429,874.6335714,18.91814286,6.011142857,25.19714286,6.616714286,,,,,,,,,,16051,santancc5b,,15928,SANTN 5B,Existing,SRP,SW_SRP,
Santan,ST5A,153.8,151,203,90,OP,2005,Gas_CC,Gas,CT,8068,AZ,33.3325,-111.7503,WECC,SRP,Santan CC5b,,,6,2,-1,10.68428571,10.68428571,13861.36429,42.73714286,1,2.1,179.5357143,102.6521429,874.6335714,18.91814286,6.011142857,25.19714286,6.616714286,,,,,,,,,,16051,santancc5b,,15928,SANTN 5B,Existing,SRP,SW_SRP,
Mount Signal Solar Farm II,IVS2,153.5,153.5,153.5,0,OP,2020,Solar,Solar,PV,61353,CA,32.6685,-115.6292,WECC,CISO,,,,,,,,,,,,,,,,,,,,,,,,,,,,,,,,,,,,,
Northern Colorado Wind LLC,SIEM,151.8,151.8,151.8,0,OP,2009,Wind,,WT,57290,CO,40.9881,-102.8969,WECC,PSCO,,,,,,,,,,,,,,,,,,,,,,,,,,,,,,,,,,,,,
Pacific Wind LLC,1,151.7,140,140,0,OP,2012,Wind,,WT,57757,CA,34.891389,-118.4325,WECC,CISO,,,,,,,,,,,,,,,,,,,,,,,,,,,,,,,,,,,,,
Juniper Canyon I Wind Project,1,151.2,148.8,148.8,0,OP,2011,Wind,,WT,57320,WA,45.9215,-120.2355,WECC,AVRN,,,,,,,,,,,,,,,,,,,,,,,,,,,,,,,,,,,,,
Topaz Solar Farm,TPZ2,151.2,151.2,151.2,0,OP,2013,Solar,Solar,PV,57695,CA,35.405556,-120.068611,WECC,CISO,,,,,,,,,,,,,,,,,,,,,,,,,,,,,,,,,,,,,
North Rosamond Solar LLC,GEN01,151.1,151.1,151.1,0,OP,2019,Solar,Solar,PV,59879,CA,34.862,-118.38,WECC,CISO,,,,,,,,,,,,,,,,,,,,,,,,,,,,,,,,,,,,,
Manchief Electric Generating Station,UN1,150,132,160,80,OP,2000,Gas_SC,Gas,CT,55127,CO,40.217143,-103.68504,WECC,PSCO,Manchief 1,GT F_V84.3A1,FALSE,1,1,-1,13.3,13.3,7850.941,29.26,1,0.56,160,95,1046.698,21.667,7.823,21.666,7.903,21.667,7.982,0,0,0,0,0,0,manchief1,13797,manchief1,CO-55127-UN1,70314,MANCHEF1,Existing,PSCO,RM_PSCO,55127
Rio Bravo,GT1,150,140.7,149,65,OP,2000,Gas_SC,Gas,CT,55039,NM,35.026,-106.644,WECC,PNM,Rio Bravo,GT F_7F,FALSE,1,1,-1,14.2,14.2,8382.208,31.24,1,0.56,148,80,1040.755,22.667,7.5,22.666,8.397,22.667,9.293,0,0,0,0,0,0,riobravo,13228,riobravo,NM-55039-GT1,10246,RIO_BRAVO,Existing,PNM,SW_PNM,55039
Manchief Electric Generating Station,UN2,150,132,160,80,OP,2000,Gas_SC,Gas,CT,55127,CO,40.217143,-103.68504,WECC,PSCO,Manchief 2,GT F_V84.3A1,FALSE,1,1,-1,13.3,13.3,7850.941,29.26,1,0.56,160,85,969.0444,25,7.793,25,7.885,25,7.976,0,0,0,0,0,0,manchief2,13798,manchief2,CO-55127-UN2,70315,MANCHEF2,Existing,PSCO,RM_PSCO,55127
Cabin Creek,A,150,180.3,180.3,75,OP,1967,Hydro,,PS,467,CO,39.6551,-105.7088,WECC,PSCO,,,,,,,,,,,,,,,,,,,,,,,,,,,,,,,,,,,,,
Cabin Creek,B,150,162,162,75,OP,1967,Hydro,,PS,467,CO,39.6551,-105.7088,WECC,PSCO,,,,,,,,,,,,,,,,,,,,,,,,,,,,,,,,,,,,,
Mossyrock,51,150,186,175.3,100,OP,1968,Hydro,,HY,3918,WA,46.5347,-122.4247,WECC,TPWR,,,,,,,,,,,,,,,,,,,,,,,,,,,,,,,,,,,,,
