plant_name_eia,generator_id,capacity_mw,summer_capacity_mw,winter_capacity_mw,p_nom_min,Status,operating_year,tech_type,fuel_type,prime_mover,plant_id_eia,State,Latitude,Longitude,NERC Region,Balancing Authority Code,energy_capacity_mwh,max_charge_rate_mw,max_discharge_rate_mw,Storage Technology 1,GeneratorName, Turbine Type,MustRun,MinimumDownTime(hr),MinimumUpTime(hr),MaxUpTime(hr),RampUp Rate(MW/minute),RampDn Rate(MW/minute),Startup Cost Fixed($),StartFuel(MMBTu),Startup Time,VOM Cost,IOMaxCap(MW),IOMinCap(MW),MinInput(MMBTu),IncCap2(MW),IncHR2(MMBTu/MWh),IncCap3(MW),IncHR3(MMBTu/MWh),IncCap4(MW),IncHR4(MMBTu/MWh),IncCap5(MW),IncHR5(MMBTu/MWh),IncCap6(MW),IncHR6(MMBTu/MWh),IncCap7(MW),IncHR7(MMBTu/MWh),generator_name_alt,generator_key,generatorkey,ads_name,long id,bus id,bus name,devstatus,balancing_area,region name,plant_id_ads
Peach Bottom,2,1499.4,1264.7,1345.1,115.8,OP,1974,Nuclear,Nuclear,CT,3166,PA,39.758936,-76.268742,RFC,PJM,,,,,,,,,,,,,,,,,,,,,,,,,,,,,,,,,,,,,,,,,,
Grand Gulf,1,1440.0,1400.5,1448.1,300.0,OP,1985,Nuclear,Nuclear,CT,6072,MS,32.0081,-91.0478,SERC,MISO,,,,,,,,,,,,,,,,,,,,,,,,,,,,,,,,,,,,,,,,,,
Palo Verde,3,1403.2,1312.0,1334.0,110.0,OP,1988,Nuclear,Nuclear,CT,6008,AZ,33.3881,-112.8617,WECC,SRP,,,,,Palo Verde 3,ST-NUC,True,1.0,1.0,-1.0,6.98,6.98,170655.0,0.0,1.0,5.633296,1334.0,1334.0,14134.51,0.0,,0.0,0.0,0.0,0.0,0.0,0.0,0.0,0.0,0.0,0.0,paloverde3,13306.0,13306.0,paloverde3,AZ-6008-3,14933.0,PALOVRD3,Existing,TH_PV,SW_TH_PV,6008
Palo Verde,2,1403.2,1314.0,1336.0,110.0,OP,1986,Nuclear,Nuclear,CT,6008,AZ,33.3881,-112.8617,WECC,SRP,,,,,Palo Verde 2,ST-NUC,True,1.0,1.0,-1.0,6.98,6.98,170902.9,0.0,1.0,5.633296,1336.0,1336.0,14237.06,0.0,,0.0,0.0,0.0,0.0,0.0,0.0,0.0,0.0,0.0,0.0,paloverde2,13305.0,13305.0,paloverde2,AZ-6008-2,14932.0,PALOVRD2,Existing,TH_PV,SW_TH_PV,6008
Palo Verde,1,1403.2,1311.0,1333.0,110.0,OP,1986,Nuclear,Nuclear,CT,6008,AZ,33.3881,-112.8617,WECC,SRP,,,,,Palo Verde 1,ST-NUC,True,1.0,1.0,-1.0,6.98,6.98,170531.1,0.0,1.0,5.633296,1333.0,1333.0,14389.1,0.0,,0.0,0.0,0.0,0.0,0.0,0.0,0.0,0.0,0.0,0.0,paloverde1,13304.0,13304.0,paloverde1,AZ-6008-1,14931.0,PALOVRD1,Existing,TH_PV,SW_TH_PV,6008
Peach Bottom,3,1377.0,1284.7,1349.7,117.3,OP,1974,Nuclear,Nuclear,CT,3166,PA,39.758936,-76.268742,RFC,PJM,,,,,,,,,,,,,,,,,,,,,,,,,,,,,,,,,,,,,,,,,,
South Texas Project,2,1354.3,1280.0,1320.0,1280.0,OP,1989,Nuclear,Nuclear,CT,6251,TX,28.795,-96.0481,TRE,ERCO,,,,,,,,,,,,,,,,,,,,,,,,,,,,,,,,,,,,,,,,,,
South Texas Project,1,1354.3,1300.0,1340.0,1280.0,OP,1988,Nuclear,Nuclear,CT,6251,TX,28.795,-96.0481,TRE,ERCO,,,,,,,,,,,,,,,,,,,,,,,,,,,,,,,,,,,,,,,,,,
Perry,1,1311.6,1240.0,1268.0,133.0,OP,1987,Nuclear,Nuclear,CT,6020,OH,41.8006,-81.1439,RFC,PJM,,,,,,,,,,,,,,,,,,,,,,,,,,,,,,,,,,,,,,,,,,
Cumberland (TN),1,1300.0,1239.0,1265.0,650.0,OP,1973,Coal,Coal,CT,3399,TN,36.3903,-87.6539,SERC,TVA,,,,,,,,,,,,,,,,,,,,,,,,,,,,,,,,,,,,,,,,,,
John E Amos,3,1300.0,1300.0,1299.0,600.0,OP,1973,Coal,Coal,CT,3935,WV,38.4731,-81.8233,RFC,PJM,,,,,,,,,,,,,,,,,,,,,,,,,,,,,,,,,,,,,,,,,,
"Gavin Power, LLC",1,1300.0,1348.0,1348.0,485.0,OP,1974,Coal,Coal,CT,8102,OH,38.9347,-82.1158,RFC,PJM,,,,,,,,,,,,,,,,,,,,,,,,,,,,,,,,,,,,,,,,,,
Rockport,1,1300.0,1300.0,1299.0,500.0,OP,1984,Coal,Coal,CT,6166,IN,37.9256,-87.0372,RFC,PJM,,,,,,,,,,,,,,,,,,,,,,,,,,,,,,,,,,,,,,,,,,
Rockport,2,1300.0,1300.0,1299.0,500.0,OP,1989,Coal,Coal,CT,6166,IN,37.9256,-87.0372,RFC,PJM,,,,,,,,,,,,,,,,,,,,,,,,,,,,,,,,,,,,,,,,,,
Cumberland (TN),2,1300.0,1231.0,1257.0,650.0,OP,1973,Coal,Coal,CT,3399,TN,36.3903,-87.6539,SERC,TVA,,,,,,,,,,,,,,,,,,,,,,,,,,,,,,,,,,,,,,,,,,
Mountaineer,1,1300.0,1299.0,1299.0,500.0,OP,1980,Coal,Coal,CT,6264,WV,38.9794,-81.9344,RFC,PJM,,,,,,,,,,,,,,,,,,,,,,,,,,,,,,,,,,,,,,,,,,
"Gavin Power, LLC",2,1300.0,1361.0,1361.0,485.0,OP,1975,Coal,Coal,CT,8102,OH,38.9347,-82.1158,RFC,PJM,,,,,,,,,,,,,,,,,,,,,,,,,,,,,,,,,,,,,,,,,,
Browns Ferry,3,1292.0,1226.6,1259.0,1226.6,OP,1977,Nuclear,Nuclear,CT,46,AL,34.7042,-87.1189,SERC,TVA,,,,,,,,,,,,,,,,,,,,,,,,,,,,,,,,,,,,,,,,,,
PSEG Hope Creek Generating Station,1,1290.7,1172.0,1172.0,1172.0,OP,1986,Nuclear,Nuclear,CT,6118,NJ,39.4666,-75.5377,RFC,PJM,,,,,,,,,,,,,,,,,,,,,,,,,,,,,,,,,,,,,,,,,,
Browns Ferry,2,1281.0,1207.7,1242.0,1207.7,OP,1975,Nuclear,Nuclear,CT,46,AL,34.7042,-87.1189,SERC,TVA,,,,,,,,,,,,,,,,,,,,,,,,,,,,,,,,,,,,,,,,,,
Browns Ferry,1,1281.0,1227.4,1254.8,1227.4,OP,1974,Nuclear,Nuclear,CT,46,AL,34.7042,-87.1189,SERC,TVA,,,,,,,,,,,,,,,,,,,,,,,,,,,,,,,,,,,,,,,,,,
Watts Bar Nuclear Plant,1,1269.9,1123.0,1179.0,1123.0,OP,1996,Nuclear,Nuclear,CT,7722,TN,35.6021,-84.7895,SERC,TVA,,,,,,,,,,,,,,,,,,,,,,,,,,,,,,,,,,,,,,,,,,
Watts Bar Nuclear Plant,2,1269.9,1122.0,1164.0,1122.0,OP,2016,Nuclear,Nuclear,CT,7722,TN,35.6021,-84.7895,SERC,TVA,,,,,,,,,,,,,,,,,,,,,,,,,,,,,,,,,,,,,,,,,,
Wolf Creek Generating Station,1,1267.7,1225.0,1255.0,50.0,OP,1985,Nuclear,Nuclear,CT,210,KS,38.23926,-95.68978,MRO,SWPP,,,,,,,,,,,,,,,,,,,,,,,,,,,,,,,,,,,,,,,,,,
TalenEnergy Susquehanna,1,1266.0,1247.0,1247.0,170.0,OP,1983,Nuclear,Nuclear,CT,6103,PA,41.0919,-76.1462,RFC,PJM,,,,,,,,,,,,,,,,,,,,,,,,,,,,,,,,,,,,,,,,,,
TalenEnergy Susquehanna,2,1266.0,1247.0,1247.0,170.0,OP,1985,Nuclear,Nuclear,CT,6103,PA,41.0919,-76.1462,RFC,PJM,,,,,,,,,,,,,,,,,,,,,,,,,,,,,,,,,,,,,,,,,,
Nine Mile Point Nuclear Station,2,1259.3,1272.1,1293.9,75.0,OP,1987,Nuclear,Nuclear,CT,2589,NY,43.5211,-76.41,NPCC,NYIS,,,,,,,,,,,,,,,,,,,,,,,,,,,,,,,,,,,,,,,,,,
Millstone,3,1253.0,1244.2,1250.9,65.0,OP,1986,Nuclear,Nuclear,CT,566,CT,41.3107,-72.1677,NPCC,ISNE,,,,,,,,,,,,,,,,,,,,,,,,,,,,,,,,,,,,,,,,,,
Belews Creek,2,1245.6,1110.0,1110.0,675.0,OP,1975,Gas_SC,Gas,CT,8042,NC,36.2811,-80.0603,SERC,DUK,,,,,,,,,,,,,,,,,,,,,,,,,,,,,,,,,,,,,,,,,,
Belews Creek,1,1245.6,1110.0,1110.0,300.0,OP,1974,Gas_SC,Gas,CT,8042,NC,36.2811,-80.0603,SERC,DUK,,,,,,,,,,,,,,,,,,,,,,,,,,,,,,,,,,,,,,,,,,
Seabrook,1,1242.0,1248.1,1251.4,360.0,OP,1990,Nuclear,Nuclear,CT,6115,NH,42.899167,-70.848889,NPCC,ISNE,,,,,,,,,,,,,,,,,,,,,,,,,,,,,,,,,,,,,,,,,,
Callaway,1,1235.8,1190.0,1236.0,800.0,OP,1984,Nuclear,Nuclear,CT,6153,MO,38.758919,-91.778841,SERC,MISO,,,,,,,,,,,,,,,,,,,,,,,,,,,,,,,,,,,,,,,,,,
Byron Generating Station,1,1224.9,1164.0,1211.7,643.5,OP,1985,Nuclear,Nuclear,CT,6023,IL,42.0742,-89.2819,RFC,PJM,,,,,,,,,,,,,,,,,,,,,,,,,,,,,,,,,,,,,,,,,,
Braidwood Generation Station,1,1224.9,1183.0,1218.6,657.1,OP,1988,Nuclear,Nuclear,CT,6022,IL,41.2435,-88.2286,RFC,PJM,,,,,,,,,,,,,,,,,,,,,,,,,,,,,,,,,,,,,,,,,,
Byron Generating Station,2,1224.9,1136.0,1174.0,646.7,OP,1987,Nuclear,Nuclear,CT,6023,IL,42.0742,-89.2819,RFC,PJM,,,,,,,,,,,,,,,,,,,,,,,,,,,,,,,,,,,,,,,,,,
Braidwood Generation Station,2,1224.9,1154.0,1182.5,657.6,OP,1988,Nuclear,Nuclear,CT,6022,IL,41.2435,-88.2286,RFC,PJM,,,,,,,,,,,,,,,,,,,,,,,,,,,,,,,,,,,,,,,,,,
Sequoyah,1,1220.5,1152.0,1177.4,1152.0,OP,1981,Nuclear,Nuclear,CT,6152,TN,35.2267,-85.0917,SERC,TVA,,,,,,,,,,,,,,,,,,,,,,,,,,,,,,,,,,,,,,,,,,
Sequoyah,2,1220.5,1125.7,1155.1,1125.7,OP,1982,Nuclear,Nuclear,CT,6152,TN,35.2267,-85.0917,SERC,TVA,,,,,,,,,,,,,,,,,,,,,,,,,,,,,,,,,,,,,,,,,,
McGuire,2,1220.3,1157.6,1187.2,1157.6,OP,1984,Nuclear,Nuclear,CT,6038,NC,35.4331,-80.9486,SERC,DUK,,,,,,,,,,,,,,,,,,,,,,,,,,,,,,,,,,,,,,,,,,
McGuire,1,1220.3,1158.0,1199.0,1158.0,OP,1981,Nuclear,Nuclear,CT,6038,NC,35.4331,-80.9486,SERC,DUK,,,,,,,,,,,,,,,,,,,,,,,,,,,,,,,,,,,,,,,,,,
Fermi,2,1217.0,1141.0,1161.0,690.0,OP,1988,Nuclear,Nuclear,CT,1729,MI,41.9631,-83.2581,RFC,MISO,,,,,,,,,,,,,,,,,,,,,,,,,,,,,,,,,,,,,,,,,,
Comanche Peak,2,1215.0,1195.0,1225.0,1103.0,OP,1993,Nuclear,Nuclear,CT,6145,TX,32.298365,-97.785515,TRE,ERCO,,,,,,,,,,,,,,,,,,,,,,,,,,,,,,,,,,,,,,,,,,
Comanche Peak,1,1215.0,1205.0,1235.0,1112.0,OP,1990,Nuclear,Nuclear,CT,6145,TX,32.298365,-97.785515,TRE,ERCO,,,,,,,,,,,,,,,,,,,,,,,,,,,,,,,,,,,,,,,,,,
Vogtle,1,1215.0,1150.0,1150.0,250.0,OP,1987,Nuclear,Nuclear,CT,649,GA,33.1427,-81.7625,SERC,SOCO,,,,,,,,,,,,,,,,,,,,,,,,,,,,,,,,,,,,,,,,,,
Vogtle,2,1215.0,1152.0,1152.0,250.0,OP,1989,Nuclear,Nuclear,CT,649,GA,33.1427,-81.7625,SERC,SOCO,,,,,,,,,,,,,,,,,,,,,,,,,,,,,,,,,,,,,,,,,,
Catawba,1,1205.1,1160.1,1198.7,1160.1,OP,1985,Nuclear,Nuclear,CT,6036,SC,35.0514,-81.0694,SERC,DUK,,,,,,,,,,,,,,,,,,,,,,,,,,,,,,,,,,,,,,,,,,
Catawba,2,1205.1,1150.1,1179.8,1150.1,OP,1986,Nuclear,Nuclear,CT,6036,SC,35.0514,-81.0694,SERC,DUK,,,,,,,,,,,,,,,,,,,,,,,,,,,,,,,,,,,,,,,,,,
Columbia Generating Station,2,1200.0,1151.0,1172.0,120.0,OP,1984,Nuclear,Nuclear,CT,371,WA,46.4711,-119.3339,WECC,BPAT,,,,,Columbia2,ST-NUC,True,1.0,1.0,-1.0,6.98,6.98,145001.0,0.0,1.0,5.633296,1185.0,1185.0,12104.73,0.0,,0.0,0.0,0.0,0.0,0.0,0.0,0.0,0.0,0.0,0.0,columbia2,2491.0,2491.0,columbia2,WA-371-2,40063.0,CGS,Existing,BPAT,NW_BPAT,371
Waterford 3,3,1199.8,1164.5,1173.5,200.0,OP,1985,Nuclear,Nuclear,CT,4270,LA,29.995267,-90.471581,SERC,MISO,,,,,,,,,,,,,,,,,,,,,,,,,,,,,,,,,,,,,,,,,,
LaSalle Generating Station,2,1170.0,1133.9,1174.0,133.0,OP,1984,Nuclear,Nuclear,CT,6026,IL,41.245498,-88.669066,RFC,PJM,,,,,,,,,,,,,,,,,,,,,,,,,,,,,,,,,,,,,,,,,,
PSEG Salem Generating Station,1,1170.0,1145.8,1145.8,1145.8,OP,1977,Nuclear,Nuclear,CT,2410,NJ,39.4625,-75.5358,RFC,PJM,,,,,,,,,,,,,,,,,,,,,,,,,,,,,,,,,,,,,,,,,,
PSEG Salem Generating Station,2,1170.0,1138.9,1138.9,1138.9,OP,1981,Nuclear,Nuclear,CT,2410,NJ,39.4625,-75.5358,RFC,PJM,,,,,,,,,,,,,,,,,,,,,,,,,,,,,,,,,,,,,,,,,,
LaSalle Generating Station,1,1170.0,1130.5,1171.9,135.0,OP,1984,Nuclear,Nuclear,CT,6026,IL,41.245498,-88.669066,RFC,PJM,,,,,,,,,,,,,,,,,,,,,,,,,,,,,,,,,,,,,,,,,,
Diablo Canyon,2,1164.0,1118.0,1118.0,0.0,OP,1986,Nuclear,Nuclear,CT,6099,CA,35.211536,-120.855542,WECC,CISO,,,,,DiabloCanyon2,ST-NUC,True,168.0,168.0,-1.0,6.98,6.98,148719.0,0.0,1.0,5.633296,1200.0,941.0,12867.88,259.0,11.0,0.0,0.0,0.0,0.0,0.0,0.0,0.0,0.0,0.0,0.0,diablocanyon2,1249.0,1249.0,diablocanyon2,CA-6099-2,36412.0,DIABLO 2,Existing,CIPV,CA_CISO,6099
Diablo Canyon,1,1159.0,1122.0,1122.0,0.0,OP,1985,Nuclear,Nuclear,CT,6099,CA,35.211536,-120.855542,WECC,CISO,,,,,DiabloCanyon1,ST-NUC,True,168.0,168.0,-1.0,6.98,6.98,148719.0,0.0,1.0,5.633296,1200.0,941.0,12867.88,259.0,11.0,0.0,0.0,0.0,0.0,0.0,0.0,0.0,0.0,0.0,0.0,diablocanyon1,1248.0,1248.0,diablocanyon1,CA-6099-1,36411.0,DIABLO 1,Existing,CIPV,CA_CISO,6099
Donald C Cook,1,1152.0,1009.0,1084.0,1006.0,OP,1975,Nuclear,Nuclear,CT,6000,MI,41.975604,-86.565206,RFC,PJM,,,,,,,,,,,,,,,,,,,,,,,,,,,,,,,,,,,,,,,,,,
Limerick,2,1138.5,1122.1,1188.1,55.0,OP,1990,Nuclear,Nuclear,CT,6105,PA,40.224303,-75.58744,RFC,PJM,,,,,,,,,,,,,,,,,,,,,,,,,,,,,,,,,,,,,,,,,,
Limerick,1,1138.5,1119.7,1180.1,55.0,OP,1986,Nuclear,Nuclear,CT,6105,PA,40.224303,-75.58744,RFC,PJM,,,,,,,,,,,,,,,,,,,,,,,,,,,,,,,,,,,,,,,,,,
Clinton Power Station,1,1138.3,1050.2,1060.5,296.9,OP,1987,Nuclear,Nuclear,CT,204,IL,40.1719,-88.8339,SERC,MISO,,,,,,,,,,,,,,,,,,,,,,,,,,,,,,,,,,,,,,,,,,
Donald C Cook,2,1133.3,1168.0,1194.0,1053.0,OP,1978,Nuclear,Nuclear,CT,6000,MI,41.975604,-86.565206,RFC,PJM,,,,,,,,,,,,,,,,,,,,,,,,,,,,,,,,,,,,,,,,,,
St Lucie,1,1080.0,981.0,1003.0,981.0,OP,1976,Nuclear,Nuclear,CT,6045,FL,27.348611,-80.246389,SERC,FPL,,,,,,,,,,,,,,,,,,,,,,,,,,,,,,,,,,,,,,,,,,
St Lucie,2,1080.0,987.0,987.0,987.0,OP,1983,Nuclear,Nuclear,CT,6045,FL,27.348611,-80.246389,SERC,FPL,,,,,,,,,,,,,,,,,,,,,,,,,,,,,,,,,,,,,,,,,,
River Bend,1,1035.9,967.5,967.0,103.6,OP,1986,Nuclear,Nuclear,CT,6462,LA,30.757,-91.3327,SERC,MISO,,,,,,,,,,,,,,,,,,,,,,,,,,,,,,,,,,,,,,,,,,
V C Summer,1,1029.6,977.2,994.1,150.0,OP,1984,Nuclear,Nuclear,CT,6127,SC,34.2983,-81.3153,SERC,SCEG,,,,,,,,,,,,,,,,,,,,,,,,,,,,,,,,,,,,,,,,,,
Ravenswood,3,1027.0,988.7,968.3,150.0,OP,1965,Gas_SC,Gas,CT,2500,NY,40.759167,-73.946111,NPCC,NYIS,,,,,,,,,,,,,,,,,,,,,,,,,,,,,,,,,,,,,,,,,,
Quad Cities Generating Station,2,1009.3,911.0,941.6,132.0,OP,1972,Nuclear,Nuclear,CT,880,IL,41.726111,-90.310278,RFC,PJM,,,,,,,,,,,,,,,,,,,,,,,,,,,,,,,,,,,,,,,,,,
Dresden Generating Station,3,1009.3,895.0,938.1,150.0,OP,1971,Nuclear,Nuclear,CT,869,IL,41.39,-88.27,RFC,PJM,,,,,,,,,,,,,,,,,,,,,,,,,,,,,,,,,,,,,,,,,,
Dresden Generating Station,2,1009.3,902.0,943.9,150.0,OP,1970,Nuclear,Nuclear,CT,869,IL,41.39,-88.27,RFC,PJM,,,,,,,,,,,,,,,,,,,,,,,,,,,,,,,,,,,,,,,,,,
Quad Cities Generating Station,1,1009.3,908.0,941.8,132.0,OP,1972,Nuclear,Nuclear,CT,880,IL,41.726111,-90.310278,RFC,PJM,,,,,,,,,,,,,,,,,,,,,,,,,,,,,,,,,,,,,,,,,,
Sandy Creek Energy Station,S01,1008.0,932.6,932.6,360.0,OP,2013,Coal,Coal,CT,56611,TX,31.474378,-96.957149,TRE,ERCO,,,,,,,,,,,,,,,,,,,,,,,,,,,,,,,,,,,,,,,,,,
Brunswick Nuclear,2,1001.6,932.0,953.0,932.0,OP,1975,Nuclear,Nuclear,CT,6014,NC,33.9597,-78.0114,SERC,CPLE,,,,,,,,,,,,,,,,,,,,,,,,,,,,,,,,,,,,,,,,,,
Brunswick Nuclear,1,1001.6,938.0,975.0,938.0,OP,1977,Nuclear,Nuclear,CT,6014,NC,33.9597,-78.0114,SERC,CPLE,,,,,,,,,,,,,,,,,,,,,,,,,,,,,,,,,,,,,,,,,,
Iatan,2,999.0,897.1,897.1,657.0,OP,2010,Coal,Coal,CT,6065,MO,39.4472,-94.98,MRO,SWPP,,,,,,,,,,,,,,,,,,,,,,,,,,,,,,,,,,,,,,,,,,
North Anna,1,979.7,948.0,982.0,185.0,OP,1978,Nuclear,Nuclear,CT,6168,VA,38.06,-77.7897,SERC,PJM,,,,,,,,,,,,,,,,,,,,,,,,,,,,,,,,,,,,,,,,,,
North Anna,2,979.7,944.0,976.0,185.0,OP,1980,Nuclear,Nuclear,CT,6168,VA,38.06,-77.7897,SERC,PJM,,,,,,,,,,,,,,,,,,,,,,,,,,,,,,,,,,,,,,,,,,
Conemaugh,1,975.5,850.0,850.0,325.0,OP,1970,Coal,Coal,CT,3118,PA,40.3842,-79.0611,RFC,PJM,,,,,,,,,,,,,,,,,,,,,,,,,,,,,,,,,,,,,,,,,,
Conemaugh,2,975.5,850.0,850.0,325.0,OP,1971,Coal,Coal,CT,3118,PA,40.3842,-79.0611,RFC,PJM,,,,,,,,,,,,,,,,,,,,,,,,,,,,,,,,,,,,,,,,,,
Limestone,2,956.8,858.0,858.0,300.0,OP,1986,Coal,Coal,CT,298,TX,31.4219,-96.2525,TRE,ERCO,,,,,,,,,,,,,,,,,,,,,,,,,,,,,,,,,,,,,,,,,,
E C Gaston,5,952.0,832.0,832.0,700.0,OP,1974,Coal,Coal,CT,26,AL,33.244211,-86.458056,SERC,SOCO,,,,,,,,,,,,,,,,,,,,,,,,,,,,,,,,,,,,,,,,,,
Bowen,3,952.0,883.0,883.0,550.0,OP,1974,Coal,Coal,CT,703,GA,34.1256,-84.9222,SERC,SOCO,,,,,,,,,,,,,,,,,,,,,,,,,,,,,,,,,,,,,,,,,,
Bowen,4,952.0,885.0,885.0,550.0,OP,1975,Coal,Coal,CT,703,GA,34.1256,-84.9222,SERC,SOCO,,,,,,,,,,,,,,,,,,,,,,,,,,,,,,,,,,,,,,,,,,
Harris,1,950.9,964.0,1009.0,964.0,OP,1987,Nuclear,Nuclear,CT,6015,NC,35.6334,-78.9556,SERC,CPLE,,,,,,,,,,,,,,,,,,,,,,,,,,,,,,,,,,,,,,,,,,
Bull Run,1,950.0,865.0,872.0,572.0,OP,1967,Coal,Coal,CT,3396,TN,36.0211,-84.1567,SERC,TVA,,,,,,,,,,,,,,,,,,,,,,,,,,,,,,,,,,,,,,,,,,
Arkansas Nuclear One,2,942.5,989.0,1004.7,250.0,OP,1980,Nuclear,Nuclear,CT,8055,AR,35.311,-93.2351,SERC,MISO,,,,,,,,,,,,,,,,,,,,,,,,,,,,,,,,,,,,,,,,,,
Sherburne County,3,938.7,876.0,876.0,400.0,OP,1987,Coal,Coal,CT,6090,MN,45.3808,-93.8931,MRO,MISO,,,,,,,,,,,,,,,,,,,,,,,,,,,,,,,,,,,,,,,,,,
Keystone,2,936.0,850.0,850.0,350.0,OP,1968,Coal,Coal,CT,3136,PA,40.6604,-79.3411,RFC,PJM,,,,,,,,,,,,,,,,,,,,,,,,,,,,,,,,,,,,,,,,,,
Keystone,1,936.0,850.0,850.0,350.0,OP,1967,Coal,Coal,CT,3136,PA,40.6604,-79.3411,RFC,PJM,,,,,,,,,,,,,,,,,,,,,,,,,,,,,,,,,,,,,,,,,,
Calvert Cliffs Nuclear Power Plant,2,932.4,841.8,895.1,50.0,OP,1977,Nuclear,Nuclear,CT,6011,MD,38.4344,-76.4417,RFC,PJM,,,,,,,,,,,,,,,,,,,,,,,,,,,,,,,,,,,,,,,,,,
Davis Besse,1,925.2,894.0,908.0,110.0,OP,1977,Nuclear,Nuclear,CT,6149,OH,41.5967,-83.0861,RFC,PJM,,,,,,,,,,,,,,,,,,,,,,,,,,,,,,,,,,,,,,,,,,
Edwin I Hatch,1,924.0,876.0,876.0,250.0,OP,1975,Nuclear,Nuclear,CT,6051,GA,31.9342,-82.3447,SERC,SOCO,,,,,,,,,,,,,,,,,,,,,,,,,,,,,,,,,,,,,,,,,,
Edwin I Hatch,2,924.0,883.0,883.0,250.0,OP,1979,Nuclear,Nuclear,CT,6051,GA,31.9342,-82.3447,SERC,SOCO,,,,,,,,,,,,,,,,,,,,,,,,,,,,,,,,,,,,,,,,,,
Beaver Valley,1,923.4,907.0,939.0,94.0,OP,1976,Nuclear,Nuclear,CT,6040,PA,40.6219,-80.4336,RFC,PJM,,,,,,,,,,,,,,,,,,,,,,,,,,,,,,,,,,,,,,,,,,
Beaver Valley,2,923.4,901.0,933.0,93.0,OP,1987,Nuclear,Nuclear,CT,6040,PA,40.6219,-80.4336,RFC,PJM,,,,,,,,,,,,,,,,,,,,,,,,,,,,,,,,,,,,,,,,,,
Walter Scott Jr Energy Center,4,922.5,805.8,805.8,230.0,OP,2007,Coal,Coal,CT,1082,IA,41.18,-95.8408,MRO,MISO,,,,,,,,,,,,,,,,,,,,,,,,,,,,,,,,,,,,,,,,,,
J K Spruce,2,922.5,785.0,785.0,290.0,OP,2010,Coal,Coal,CT,7097,TX,29.309722,-98.3203,TRE,ERCO,,,,,,,,,,,,,,,,,,,,,,,,,,,,,,,,,,,,,,,,,,
Calvert Cliffs Nuclear Power Plant,1,918.0,866.0,920.6,50.0,OP,1975,Nuclear,Nuclear,CT,6011,MD,38.4344,-76.4417,RFC,PJM,,,,,,,,,,,,,,,,,,,,,,,,,,,,,,,,,,,,,,,,,,
J H Campbell,3,916.8,784.6,785.3,350.0,OP,1980,Coal,Coal,CT,1710,MI,42.910296,-86.20074,RFC,MISO,,,,,,,,,,,,,,,,,,,,,,,,,,,,,,,,,,,,,,,,,,
Oak Grove (TX),OG1,916.8,855.0,855.0,348.0,OP,2010,Coal,Coal,CT,6180,TX,31.1803,-96.4866,TRE,ERCO,,,,,,,,,,,,,,,,,,,,,,,,,,,,,,,,,,,,,,,,,,
Millstone,2,909.9,863.8,869.8,50.0,OP,1975,Nuclear,Nuclear,CT,566,CT,41.3107,-72.1677,NPCC,ISNE,,,,,,,,,,,,,,,,,,,,,,,,,,,,,,,,,,,,,,,,,,
James E. Rogers Energy Complex,6,909.5,844.0,849.0,310.0,OP,2012,Gas_SC,Gas,CT,2721,NC,35.22,-81.7594,SERC,DUK,,,,,,,,,,,,,,,,,,,,,,,,,,,,,,,,,,,,,,,,,,
Arkansas Nuclear One,1,902.5,833.0,855.0,250.0,OP,1974,Nuclear,Nuclear,CT,8055,AR,35.311,-93.2351,SERC,MISO,,,,,,,,,,,,,,,,,,,,,,,,,,,,,,,,,,,,,,,,,,
Oswego Harbor Power,ST5,901.8,797.0,822.0,150.0,OP,1975,Oil,Oil,CT,2594,NY,43.4586,-76.5319,NPCC,NYIS,,,,,,,,,,,,,,,,,,,,,,,,,,,,,,,,,,,,,,,,,,
Oswego Harbor Power,ST6,901.8,816.0,818.5,150.0,OP,1979,Oil,Oil,CT,2594,NY,43.4586,-76.5319,NPCC,NYIS,,,,,,,,,,,,,,,,,,,,,,,,,,,,,,,,,,,,,,,,,,
Independence Steam Electric Station,2,900.0,825.8,842.0,220.0,OP,1984,Coal,Coal,CT,6641,AR,35.678442,-91.408761,SERC,MISO,,,,,,,,,,,,,,,,,,,,,,,,,,,,,,,,,,,,,,,,,,
Independence Steam Electric Station,1,900.0,820.9,836.0,220.0,OP,1983,Coal,Coal,CT,6641,AR,35.678442,-91.408761,SERC,MISO,,,,,,,,,,,,,,,,,,,,,,,,,,,,,,,,,,,,,,,,,,
White Bluff,1,900.0,817.4,823.4,200.0,OP,1980,Coal,Coal,CT,6009,AR,34.4228,-92.1406,SERC,MISO,,,,,,,,,,,,,,,,,,,,,,,,,,,,,,,,,,,,,,,,,,
White Bluff,2,900.0,820.6,826.6,200.0,OP,1981,Coal,Coal,CT,6009,AR,34.4228,-92.1406,SERC,MISO,,,,,,,,,,,,,,,,,,,,,,,,,,,,,,,,,,,,,,,,,,
Nine Mile Point,5,895.1,740.9,745.8,190.0,OP,1973,Gas_SC,Gas,CT,1403,LA,29.9472,-90.1458,SERC,MISO,,,,,,,,,,,,,,,,,,,,,,,,,,,,,,,,,,,,,,,,,,
Nine Mile Point,6(4),895.1,741.0,752.2,190.0,OP,1971,Gas_SC,Gas,CT,1403,LA,29.9472,-90.1458,SERC,MISO,,,,,,,,,,,,,,,,,,,,,,,,,,,,,,,,,,,,,,,,,,
Oconee,3,893.3,859.0,881.0,859.0,OP,1974,Nuclear,Nuclear,CT,3265,SC,34.7939,-82.8986,SERC,DUK,,,,,,,,,,,,,,,,,,,,,,,,,,,,,,,,,,,,,,,,,,
Limestone,1,893.0,831.0,831.0,300.0,OP,1985,Coal,Coal,CT,298,TX,31.4219,-96.2525,TRE,ERCO,,,,,,,,,,,,,,,,,,,,,,,,,,,,,,,,,,,,,,,,,,
TalenEnergy Montour,2,893.0,752.0,752.0,342.0,OP,1973,Coal,Coal,CT,3149,PA,41.0714,-76.6672,RFC,PJM,,,,,,,,,,,,,,,,,,,,,,,,,,,,,,,,,,,,,,,,,,
Powerton,5,892.8,769.0,769.0,325.0,OP,1972,Coal,Coal,CT,879,IL,40.5408,-89.6786,RFC,PJM,,,,,,,,,,,,,,,,,,,,,,,,,,,,,,,,,,,,,,,,,,
Powerton,6,892.8,769.0,769.0,325.0,OP,1975,Coal,Coal,CT,879,IL,40.5408,-89.6786,RFC,PJM,,,,,,,,,,,,,,,,,,,,,,,,,,,,,,,,,,,,,,,,,,
Scherer,1,891.0,860.0,860.0,350.0,OP,1982,Coal,Coal,CT,6257,GA,33.0606,-83.8075,SERC,SOCO,,,,,,,,,,,,,,,,,,,,,,,,,,,,,,,,,,,,,,,,,,
Scherer,3,891.0,860.0,860.0,350.0,OP,1987,Coal,Coal,CT,6257,GA,33.0606,-83.8075,SERC,SOCO,,,,,,,,,,,,,,,,,,,,,,,,,,,,,,,,,,,,,,,,,,
Scherer,2,891.0,860.0,860.0,350.0,OP,1984,Coal,Coal,CT,6257,GA,33.0606,-83.8075,SERC,SOCO,,,,,,,,,,,,,,,,,,,,,,,,,,,,,,,,,,,,,,,,,,
Joseph M Farley,1,888.2,895.0,895.0,250.0,OP,1977,Nuclear,Nuclear,CT,6001,AL,31.2231,-85.1116,SERC,SOCO,,,,,,,,,,,,,,,,,,,,,,,,,,,,,,,,,,,,,,,,,,
Joseph M Farley,2,888.2,896.0,896.0,250.0,OP,1981,Nuclear,Nuclear,CT,6001,AL,31.2231,-85.1116,SERC,SOCO,,,,,,,,,,,,,,,,,,,,,,,,,,,,,,,,,,,,,,,,,,
Oconee,2,886.7,848.0,872.0,848.0,OP,1974,Nuclear,Nuclear,CT,3265,SC,34.7939,-82.8986,SERC,DUK,,,,,,,,,,,,,,,,,,,,,,,,,,,,,,,,,,,,,,,,,,
Oconee,1,886.7,847.0,865.0,847.0,OP,1973,Nuclear,Nuclear,CT,3265,SC,34.7939,-82.8986,SERC,DUK,,,,,,,,,,,,,,,,,,,,,,,,,,,,,,,,,,,,,,,,,,
James A Fitzpatrick,1,883.3,831.3,853.4,125.0,OP,1976,Nuclear,Nuclear,CT,6110,NY,43.52139,-76.408394,NPCC,NYIS,,,,,,,,,,,,,,,,,,,,,,,,,,,,,,,,,,,,,,,,,,
Prairie State Generating Station,PC2,883.0,815.0,815.0,420.0,OP,2012,Coal,Coal,CT,55856,IL,38.279167,-89.666944,SERC,MISO,,,,,,,,,,,,,,,,,,,,,,,,,,,,,,,,,,,,,,,,,,
Prairie State Generating Station,PC1,883.0,815.0,815.0,420.0,OP,2012,Coal,Coal,CT,55856,IL,38.279167,-89.666944,SERC,MISO,,,,,,,,,,,,,,,,,,,,,,,,,,,,,,,,,,,,,,,,,,
Yorktown,3,882.0,790.0,792.0,190.0,OP,1974,Gas_SC,Gas,CT,3809,VA,37.2144,-76.4611,SERC,PJM,,,,,,,,,,,,,,,,,,,,,,,,,,,,,,,,,,,,,,,,,,
Oak Grove (TX),OG2,878.6,855.0,855.0,455.0,OP,2011,Coal,Coal,CT,6180,TX,31.1803,-96.4866,TRE,ERCO,,,,,,,,,,,,,,,,,,,,,,,,,,,,,,,,,,,,,,,,,,
Turkey Point,3,877.2,837.0,859.0,420.0,OP,1972,Nuclear,Nuclear,CT,621,FL,25.4356,-80.3308,SERC,FPL,,,,,,,,,,,,,,,,,,,,,,,,,,,,,,,,,,,,,,,,,,
La Cygne,1,873.0,758.0,758.0,404.0,OP,1973,Coal,Coal,CT,1241,KS,38.3481,-94.6456,MRO,SWPP,,,,,,,,,,,,,,,,,,,,,,,,,,,,,,,,,,,,,,,,,,
TalenEnergy Montour,1,864.9,752.0,752.0,338.0,OP,1972,Coal,Coal,CT,3149,PA,41.0714,-76.6672,RFC,PJM,,,,,,,,,,,,,,,,,,,,,,,,,,,,,,,,,,,,,,,,,,
Manatee,1,863.3,809.0,819.0,190.0,OP,1976,Gas_SC,Gas,CT,6042,FL,27.6058,-82.3456,SERC,FPL,,,,,,,,,,,,,,,,,,,,,,,,,,,,,,,,,,,,,,,,,,
Manatee,2,863.3,809.0,819.0,190.0,OP,1977,Gas_SC,Gas,CT,6042,FL,27.6058,-82.3456,SERC,FPL,,,,,,,,,,,,,,,,,,,,,,,,,,,,,,,,,,,,,,,,,,
Comanche (CO),3,856.8,750.0,766.0,450.0,OP,2010,Coal,Coal,CT,470,CO,38.2081,-104.5747,WECC,WACM,,,,,Comanche 3,ST-Col,False,48.0,108.0,-1.0,26.81,26.81,98515.81,15396.6,1.0,3.76,766.0,466.261,4548.511,59.948,7.967,59.948,8.472,59.947,8.976,59.948,9.481,59.948,9.985,0.0,0.0,comanche3,13888.0,13888.0,comanche3,CO-470-3,70777.0,COMAN_3,Existing,PSCO,RM_PSCO,470
TalenEnergy Martins Creek,4,850.5,850.0,850.0,165.0,OP,1977,Gas_SC,Gas,CT,3148,PA,40.797762,-75.105416,RFC,PJM,,,,,,,,,,,,,,,,,,,,,,,,,,,,,,,,,,,,,,,,,,
TalenEnergy Martins Creek,3,850.5,850.0,850.0,165.0,OP,1975,Gas_SC,Gas,CT,3148,PA,40.797762,-75.105416,RFC,PJM,,,,,,,,,,,,,,,,,,,,,,,,,,,,,,,,,,,,,,,,,,
Brunner Island,3,847.8,742.0,742.0,365.0,OP,1969,Gas_SC,Gas,CT,3140,PA,40.096111,-76.6962,RFC,PJM,,,,,,,,,,,,,,,,,,,,,,,,,,,,,,,,,,,,,,,,,,
Surry,2,847.5,838.0,875.0,189.0,OP,1973,Nuclear,Nuclear,CT,3806,VA,37.1661,-76.6986,SERC,PJM,,,,,,,,,,,,,,,,,,,,,,,,,,,,,,,,,,,,,,,,,,
Surry,1,847.5,838.0,875.0,189.0,OP,1972,Nuclear,Nuclear,CT,3806,VA,37.1661,-76.6986,SERC,PJM,,,,,,,,,,,,,,,,,,,,,,,,,,,,,,,,,,,,,,,,,,
Trimble County,2,834.0,732.0,760.0,315.0,OP,2011,Coal,Coal,CT,6071,KY,38.5847,-85.4117,SERC,LGEE,,,,,,,,,,,,,,,,,,,,,,,,,,,,,,,,,,,,,,,,,,
Colstrip,4,823.7,740.0,740.0,200.0,OP,1986,Coal,Coal,CT,6076,MT,45.8831,-106.614,WECC,NWMT,,,,,Colstrip_4,ST-Col,False,48.0,108.0,-1.0,25.9,25.9,86573.67,10360.0,1.0,2.4,740.0001,219.259,2799.693,104.148,9.307,104.149,9.512,104.148,9.716,104.148,9.921,104.148,10.125,0.0,0.0,colstrip4,3507.0,3507.0,colstrip4,MT-6076-4,623504.0,COLSTRIP GN4,Existing,NWMT,NW_NWMT,6076
Colstrip,3,823.7,740.0,740.0,200.0,OP,1984,Coal,Coal,CT,6076,MT,45.8831,-106.614,WECC,NWMT,,,,,Colstrip_3,ST-Col,False,48.0,108.0,-1.0,25.9,25.9,86573.67,10360.0,1.0,2.4,740.0001,219.259,2690.189,104.148,9.583,104.149,9.924,104.148,10.266,104.148,10.607,104.148,10.948,0.0,0.0,colstrip3,3506.0,3506.0,colstrip3,MT-6076-3,623503.0,COLSTRIP GN3,Existing,NWMT,NW_NWMT,6076
Monroe (MI),2,822.6,773.0,783.0,280.0,OP,1973,Coal,Coal,CT,1733,MI,41.8906,-83.3464,RFC,MISO,,,,,,,,,,,,,,,,,,,,,,,,,,,,,,,,,,,,,,,,,,
Monroe (MI),3,822.6,773.0,783.0,280.0,OP,1973,Coal,Coal,CT,1733,MI,41.8906,-83.3464,RFC,MISO,,,,,,,,,,,,,,,,,,,,,,,,,,,,,,,,,,,,,,,,,,
Intermountain Power Project,1,820.0,900.0,900.0,270.0,OP,1986,Coal,Coal,CT,6481,UT,39.509731,-112.58018,WECC,LDWP,,,,,Intermountain CC 2,,,8.0,2.0,-1.0,23.88,23.88,34677.74,100.8,1.0,1.8,398.0,200.0,1513.905,90.0,5.402,108.0,5.85,,,,,,,,,,17212.0,,intermountaincc2,,26040.0,INTERM2G,Existing,LDWP,CA_LDWP,
Intermountain Power Project,2,820.0,900.0,900.0,270.0,OP,1987,Coal,Coal,CT,6481,UT,39.509731,-112.58018,WECC,LDWP,,,,,Intermountain CC 2,,,8.0,2.0,-1.0,23.88,23.88,34677.74,100.8,1.0,1.8,398.0,200.0,1513.905,90.0,5.402,108.0,5.85,,,,,,,,,,17212.0,,intermountaincc2,,26040.0,INTERM2G,Existing,LDWP,CA_LDWP,
Four Corners,5,818.1,770.0,770.0,364.0,OP,1970,Coal,Coal,CT,2442,NM,36.69,-108.4814,WECC,AZPS,,,,,,,,,,,,,,,,,,,,,,,,,,,,,,,,,,,,,,,,,,
Four Corners,4,818.1,770.0,770.0,364.0,OP,1969,Coal,Coal,CT,2442,NM,36.69,-108.4814,WECC,AZPS,,,,,,,,,,,,,,,,,,,,,,,,,,,,,,,,,,,,,,,,,,
Monroe (MI),4,817.2,762.0,762.0,280.0,OP,1974,Coal,Coal,CT,1733,MI,41.8906,-83.3464,RFC,MISO,,,,,,,,,,,,,,,,,,,,,,,,,,,,,,,,,,,,,,,,,,
Monroe (MI),1,817.2,758.0,758.0,280.0,OP,1971,Coal,Coal,CT,1733,MI,41.8906,-83.3464,RFC,MISO,,,,,,,,,,,,,,,,,,,,,,,,,,,,,,,,,,,,,,,,,,
John E Amos,2,816.3,800.0,800.0,300.0,OP,1972,Coal,Coal,CT,3935,WV,38.4731,-81.8233,RFC,PJM,,,,,,,,,,,,,,,,,,,,,,,,,,,,,,,,,,,,,,,,,,
Mitchell (WV),1,816.3,770.0,770.0,370.0,OP,1971,Coal,Coal,CT,3948,WV,39.8297,-80.8153,RFC,PJM,,,,,,,,,,,,,,,,,,,,,,,,,,,,,,,,,,,,,,,,,,
John E Amos,1,816.3,800.0,800.0,300.0,OP,1971,Coal,Coal,CT,3935,WV,38.4731,-81.8233,RFC,PJM,,,,,,,,,,,,,,,,,,,,,,,,,,,,,,,,,,,,,,,,,,
Mitchell (WV),2,816.3,790.0,790.0,410.0,OP,1971,Coal,Coal,CT,3948,WV,39.8297,-80.8153,RFC,PJM,,,,,,,,,,,,,,,,,,,,,,,,,,,,,,,,,,,,,,,,,,
Greenwood (MI),1,815.4,785.0,785.0,155.0,OP,1979,Gas_SC,Gas,CT,6035,MI,43.1056,-82.6964,RFC,MISO,,,,,,,,,,,,,,,,,,,,,,,,,,,,,,,,,,,,,,,,,,
Louisa,1,811.9,746.9,746.9,175.0,OP,1983,Coal,Coal,CT,6664,IA,41.3181,-91.0931,MRO,MISO,,,,,,,,,,,,,,,,,,,,,,,,,,,,,,,,,,,,,,,,,,
Longview Power Plant,MKA01,807.5,710.0,710.0,280.0,OP,2011,Coal,Coal,CT,56671,WV,39.707893,-79.958974,RFC,PJM,,,,,,,,,,,,,,,,,,,,,,,,,,,,,,,,,,,,,,,,,,
Ormond Beach,1,806.0,741.0,741.0,100.0,OP,1971,Gas_SC,Gas,CT,350,CA,34.1292,-119.1689,WECC,CISO,,,,,Ormond_Beach_1,ST-NG,False,4.0,2.0,-1.0,74.1,74.1,50910.38,6609.72,1.0,0.29,741.0,100.0,1557.267,128.2,7.488,128.2,8.056,128.2,8.625,128.2,9.194,128.2,9.763,0.0,0.0,ormondbeach1,1013.0,1013.0,ormondbeach1,CA-350-1,24107.0,ORMOND1G,Existing,CISC,CA_CISO,350
Ormond Beach,2,806.0,750.0,750.0,50.0,OP,1973,Gas_SC,Gas,CT,350,CA,34.1292,-119.1689,WECC,CISO,,,,,Ormond_Beach_2,ST-NG,False,4.0,2.0,-1.0,77.5,77.5,53246.34,6913.0,1.0,0.29,750.0,50.0,928.5801,140.0,8.06,140.0,8.387,140.0,8.715,140.0,9.042,140.0,9.369,0.0,0.0,ormondbeach2,1014.0,1014.0,ormondbeach2,CA-350-2,24108.0,ORMOND2G,Existing,CISC,CA_CISO,350
Bowen,1,805.8,714.0,714.0,450.0,OP,1971,Coal,Coal,CT,703,GA,34.1256,-84.9222,SERC,SOCO,,,,,,,,,,,,,,,,,,,,,,,,,,,,,,,,,,,,,,,,,,
Cooper Nuclear Station,1,801.0,770.0,770.0,0.0,OP,1974,Nuclear,Nuclear,CT,8036,NE,40.3628,-95.6408,MRO,SWPP,,,,,,,,,,,,,,,,,,,,,,,,,,,,,,,,,,,,,,,,,,
Martin Lake,3,793.2,805.0,820.0,230.0,OP,1979,Coal,Coal,CT,6146,TX,32.2606,-94.5706,TRE,ERCO,,,,,,,,,,,,,,,,,,,,,,,,,,,,,,,,,,,,,,,,,,
Martin Lake,2,793.2,805.0,820.0,220.0,OP,1978,Coal,Coal,CT,6146,TX,32.2606,-94.5706,TRE,ERCO,,,,,,,,,,,,,,,,,,,,,,,,,,,,,,,,,,,,,,,,,,
Martin Lake,1,793.2,800.0,815.0,220.0,OP,1977,Coal,Coal,CT,6146,TX,32.2606,-94.5706,TRE,ERCO,,,,,,,,,,,,,,,,,,,,,,,,,,,,,,,,,,,,,,,,,,
Bowen,2,788.8,718.0,718.0,450.0,OP,1972,Coal,Coal,CT,703,GA,34.1256,-84.9222,SERC,SOCO,,,,,,,,,,,,,,,,,,,,,,,,,,,,,,,,,,,,,,,,,,
Barry,5,788.8,756.5,756.5,465.0,OP,1971,Coal,Coal,CT,3,AL,31.0069,-88.0103,SERC,SOCO,,,,,,,,,,,,,,,,,,,,,,,,,,,,,,,,,,,,,,,,,,
Gerald Andrus,1,781.4,706.5,727.7,205.0,OP,1975,Gas_SC,Gas,CT,8054,MS,33.35,-91.1167,SERC,MISO,,,,,,,,,,,,,,,,,,,,,,,,,,,,,,,,,,,,,,,,,,
East Bend,2,772.0,600.0,600.0,340.0,OP,1981,Coal,Coal,CT,6018,KY,38.9036,-84.8514,RFC,PJM,,,,,,,,,,,,,,,,,,,,,,,,,,,,,,,,,,,,,,,,,,
H B Robinson,2,768.6,759.0,792.9,759.0,OP,1971,Nuclear,Nuclear,CT,3251,SC,34.4017,-80.1589,SERC,CPLE,,,,,,,,,,,,,,,,,,,,,,,,,,,,,,,,,,,,,,,,,,
Sherburne County,1,765.3,680.0,680.0,260.0,OP,1976,Coal,Coal,CT,6090,MN,45.3808,-93.8931,MRO,MISO,,,,,,,,,,,,,,,,,,,,,,,,,,,,,,,,,,,,,,,,,,
Sherburne County,2,765.3,682.0,682.0,260.0,OP,1977,Coal,Coal,CT,6090,MN,45.3808,-93.8931,MRO,MISO,,,,,,,,,,,,,,,,,,,,,,,,,,,,,,,,,,,,,,,,,,
Cedar Bayou,2,765.0,749.0,749.0,65.0,OP,1972,Gas_SC,Gas,CT,3460,TX,29.75,-94.9256,TRE,ERCO,,,,,,,,,,,,,,,,,,,,,,,,,,,,,,,,,,,,,,,,,,
Cedar Bayou,1,765.0,746.0,746.0,65.0,OP,1970,Gas_SC,Gas,CT,3460,TX,29.75,-94.9256,TRE,ERCO,,,,,,,,,,,,,,,,,,,,,,,,,,,,,,,,,,,,,,,,,,
Mayo,1,763.2,704.0,713.0,75.0,OP,1983,Coal,Coal,CT,6250,NC,36.5278,-78.8917,SERC,CPLE,,,,,,,,,,,,,,,,,,,,,,,,,,,,,,,,,,,,,,,,,,
Turkey Point,4,760.0,861.0,888.0,424.0,OP,1973,Nuclear,Nuclear,CT,621,FL,25.4356,-80.3308,SERC,FPL,,,,,,,,,,,,,,,,,,,,,,,,,,,,,,,,,,,,,,,,,,
Roxboro,4,745.2,698.0,711.0,125.0,OP,1980,Coal,Coal,CT,2712,NC,36.4833,-79.0731,SERC,CPLE,,,,,,,,,,,,,,,,,,,,,,,,,,,,,,,,,,,,,,,,,,
Roxboro,3,745.2,694.0,698.0,68.0,OP,1973,Coal,Coal,CT,2712,NC,36.4833,-79.0731,SERC,CPLE,,,,,,,,,,,,,,,,,,,,,,,,,,,,,,,,,,,,,,,,,,
Crystal River,ST4,739.2,712.0,721.0,175.0,OP,1982,Coal,Coal,CT,628,FL,28.9656,-82.6977,SERC,FPC,,,,,,,,,,,,,,,,,,,,,,,,,,,,,,,,,,,,,,,,,,
Crystal River,5,739.2,698.0,721.0,250.0,OP,1984,Coal,Coal,CT,628,FL,28.9656,-82.6977,SERC,FPC,,,,,,,,,,,,,,,,,,,,,,,,,,,,,,,,,,,,,,,,,,
Thomas Hill,3,738.0,698.0,716.0,175.0,OP,1982,Coal,Coal,CT,2168,MO,39.5522,-92.6381,SERC,AECI,,,,,,,,,,,,,,,,,,,,,,,,,,,,,,,,,,,,,,,,,,
Nebraska City,2,738.0,691.0,691.0,235.0,OP,2009,Coal,Coal,CT,6096,NE,40.6214,-95.7764,MRO,SWPP,,,,,,,,,,,,,,,,,,,,,,,,,,,,,,,,,,,,,,,,,,
W A Parish,5,734.1,664.0,664.0,175.0,OP,1977,Coal,Coal,CT,3470,TX,29.4828,-95.6311,TRE,ERCO,,,,,,,,,,,,,,,,,,,,,,,,,,,,,,,,,,,,,,,,,,
W A Parish,6,734.1,663.0,663.0,175.0,OP,1978,Coal,Coal,CT,3470,TX,29.4828,-95.6311,TRE,ERCO,,,,,,,,,,,,,,,,,,,,,,,,,,,,,,,,,,,,,,,,,,
Transalta Centralia Generation,2,729.9,670.0,670.0,250.0,OP,1973,Coal,Coal,CT,3845,WA,46.755938,-122.859764,WECC,BPAT,,,,,,,,,,,,,,,,,,,,,,,,,,,,,,,,,,,,,,,,,,
Iatan,1,726.0,702.5,702.5,366.0,OP,1980,Coal,Coal,CT,6065,MO,39.4472,-94.98,MRO,SWPP,,,,,,,,,,,,,,,,,,,,,,,,,,,,,,,,,,,,,,,,,,
La Cygne,2,725.9,668.0,668.0,274.0,OP,1977,Coal,Coal,CT,1241,KS,38.3481,-94.6456,MRO,SWPP,,,,,,,,,,,,,,,,,,,,,,,,,,,,,,,,,,,,,,,,,,
Ottumwa,1,725.9,729.3,740.7,190.0,OP,1981,Coal,Coal,CT,6254,IA,41.0961,-92.555833,MRO,MISO,,,,,,,,,,,,,,,,,,,,,,,,,,,,,,,,,,,,,,,,,,
Walter Scott Jr Energy Center,3,725.8,702.0,702.0,250.0,OP,1978,Coal,Coal,CT,1082,IA,41.18,-95.8408,MRO,MISO,,,,,,,,,,,,,,,,,,,,,,,,,,,,,,,,,,,,,,,,,,
Pirkey,1,721.0,650.0,650.0,300.0,OP,1985,Coal,Coal,CT,7902,TX,32.4607,-94.4852,MRO,SWPP,,,,,,,,,,,,,,,,,,,,,,,,,,,,,,,,,,,,,,,,,,
Plum Point Energy Station,STG1,720.0,680.0,680.0,285.0,OP,2010,Coal,Coal,CT,56456,AR,35.6644,-89.9489,SERC,MISO,,,,,,,,,,,,,,,,,,,,,,,,,,,,,,,,,,,,,,,,,,
Jeffrey Energy Center,1,720.0,670.6,670.6,230.0,OP,1978,Coal,Coal,CT,6068,KS,39.286453,-96.117231,MRO,SWPP,,,,,,,,,,,,,,,,,,,,,,,,,,,,,,,,,,,,,,,,,,
Jeffrey Energy Center,3,720.0,673.3,673.3,220.0,OP,1983,Coal,Coal,CT,6068,KS,39.286453,-96.117231,MRO,SWPP,,,,,,,,,,,,,,,,,,,,,,,,,,,,,,,,,,,,,,,,,,
Jeffrey Energy Center,2,720.0,664.1,664.1,220.0,OP,1980,Coal,Coal,CT,6068,KS,39.286453,-96.117231,MRO,SWPP,,,,,,,,,,,,,,,,,,,,,,,,,,,,,,,,,,,,,,,,,,
Seminole (FL),1,714.6,573.0,639.0,300.0,OP,1984,Coal,Coal,CT,136,FL,29.733056,-81.632778,SERC,SEC,,,,,,,,,,,,,,,,,,,,,,,,,,,,,,,,,,,,,,,,,,
Seminole (FL),2,714.6,634.0,640.0,300.0,OP,1984,Coal,Coal,CT,136,FL,29.733056,-81.632778,SERC,SEC,,,,,,,,,,,,,,,,,,,,,,,,,,,,,,,,,,,,,,,,,,
Marshall (NC),3,711.0,658.0,658.0,270.0,OP,1969,Gas_SC,Gas,CT,2727,NC,35.5975,-80.9658,SERC,DUK,,,,,,,,,,,,,,,,,,,,,,,,,,,,,,,,,,,,,,,,,,
Marshall (NC),4,711.0,660.0,660.0,270.0,OP,1970,Coal,Coal,CT,2727,NC,35.5975,-80.9658,SERC,DUK,,,,,,,,,,,,,,,,,,,,,,,,,,,,,,,,,,,,,,,,,,
Dan E Karn,4,709.8,606.3,629.5,60.0,OP,1977,Gas_SC,Gas,CT,1702,MI,43.644996,-83.840074,RFC,MISO,,,,,,,,,,,,,,,,,,,,,,,,,,,,,,,,,,,,,,,,,,
James H Miller Jr,3,705.5,693.0,693.0,300.0,OP,1989,Coal,Coal,CT,6002,AL,33.6319,-87.0597,SERC,SOCO,,,,,,,,,,,,,,,,,,,,,,,,,,,,,,,,,,,,,,,,,,
James H Miller Jr,2,705.5,692.7,692.7,300.0,OP,1985,Coal,Coal,CT,6002,AL,33.6319,-87.0597,SERC,SOCO,,,,,,,,,,,,,,,,,,,,,,,,,,,,,,,,,,,,,,,,,,
James H Miller Jr,4,705.5,704.0,704.0,300.0,OP,1991,Coal,Coal,CT,6002,AL,33.6319,-87.0597,SERC,SOCO,,,,,,,,,,,,,,,,,,,,,,,,,,,,,,,,,,,,,,,,,,
James H Miller Jr,1,705.5,687.8,687.8,300.0,OP,1978,Coal,Coal,CT,6002,AL,33.6319,-87.0597,SERC,SOCO,,,,,,,,,,,,,,,,,,,,,,,,,,,,,,,,,,,,,,,,,,
Brame Energy Center,3,703.8,627.9,0.0,400.0,OP,2010,Coal,Oil,CT,6190,LA,31.395,-92.716667,SERC,MISO,,,,,,,,,,,,,,,,,,,,,,,,,,,,,,,,,,,,,,,,,,
Elm Road Generating Station,1,701.3,635.9,637.3,340.0,OP,2010,Coal,Coal,CT,56068,WI,42.8492,-87.8336,RFC,MISO,,,,,,,,,,,,,,,,,,,,,,,,,,,,,,,,,,,,,,,,,,
Elm Road Generating Station,2,701.3,634.9,638.1,340.0,OP,2011,Coal,Coal,CT,56068,WI,42.8492,-87.8336,RFC,MISO,,,,,,,,,,,,,,,,,,,,,,,,,,,,,,,,,,,,,,,,,,
Belle River,ST1,697.5,635.0,635.0,155.0,OP,1984,Coal,Coal,CT,6034,MI,42.7756,-82.495,RFC,MISO,,,,,,,,,,,,,,,,,,,,,,,,,,,,,,,,,,,,,,,,,,
Belle River,ST2,697.5,635.0,635.0,155.0,OP,1985,Coal,Coal,CT,6034,MI,42.7756,-82.495,RFC,MISO,,,,,,,,,,,,,,,,,,,,,,,,,,,,,,,,,,,,,,,,,,
George Neal South,4,695.9,640.6,640.6,200.0,OP,1979,Coal,Coal,CT,7343,IA,42.3006,-96.3617,MRO,MISO,,,,,,,,,,,,,,,,,,,,,,,,,,,,,,,,,,,,,,,,,,
Chesterfield,6,693.9,670.0,690.0,400.0,OP,1969,Coal,Coal,CT,3797,VA,37.3822,-77.3833,SERC,PJM,,,,,,,,,,,,,,,,,,,,,,,,,,,,,,,,,,,,,,,,,,
Dan E Karn,3,692.5,593.5,617.3,60.0,OP,1975,Gas_SC,Gas,CT,1702,MI,43.644996,-83.840074,RFC,MISO,,,,,,,,,,,,,,,,,,,,,,,,,,,,,,,,,,,,,,,,,,
Homer City Generating Station,3,692.0,648.9,665.4,300.0,OP,1977,Coal,Coal,CT,3122,PA,40.512825,-79.196107,RFC,PJM,,,,,,,,,,,,,,,,,,,,,,,,,,,,,,,,,,,,,,,,,,
Brandon Shores,1,685.1,635.0,635.0,220.0,OP,1984,Coal,Coal,CT,602,MD,39.18,-76.5389,RFC,PJM,,,,,,,,,,,,,,,,,,,,,,,,,,,,,,,,,,,,,,,,,,
Brandon Shores,2,685.1,638.0,638.0,220.0,OP,1991,Coal,Coal,CT,602,MD,39.18,-76.5389,RFC,PJM,,,,,,,,,,,,,,,,,,,,,,,,,,,,,,,,,,,,,,,,,,
Monticello Nuclear Facility,1,685.0,617.0,646.0,500.0,OP,1971,Nuclear,Nuclear,CT,1922,MN,45.3338,-93.8493,MRO,MISO,,,,,,,,,,,,,,,,,,,,,,,,,,,,,,,,,,,,,,,,,,
FirstEnergy Harrison Power Station,3,684.0,651.0,661.0,375.0,OP,1974,Coal,Coal,CT,3944,WV,39.384167,-80.3325,RFC,PJM,,,,,,,,,,,,,,,,,,,,,,,,,,,,,,,,,,,,,,,,,,
FirstEnergy Harrison Power Station,1,684.0,652.0,662.0,375.0,OP,1972,Coal,Coal,CT,3944,WV,39.384167,-80.3325,RFC,PJM,,,,,,,,,,,,,,,,,,,,,,,,,,,,,,,,,,,,,,,,,,
Pleasants Power Station,1,684.0,639.0,650.0,300.0,OP,1979,Coal,Coal,CT,6004,WV,39.366667,-81.294444,RFC,PJM,,,,,,,,,,,,,,,,,,,,,,,,,,,,,,,,,,,,,,,,,,
FirstEnergy Harrison Power Station,2,684.0,651.0,661.0,375.0,OP,1973,Coal,Coal,CT,3944,WV,39.384167,-80.3325,RFC,PJM,,,,,,,,,,,,,,,,,,,,,,,,,,,,,,,,,,,,,,,,,,
Pleasants Power Station,2,684.0,639.0,650.0,300.0,OP,1980,Coal,Coal,CT,6004,WV,39.366667,-81.294444,RFC,PJM,,,,,,,,,,,,,,,,,,,,,,,,,,,,,,,,,,,,,,,,,,
Gerald Gentleman,2,681.3,700.0,700.0,0.0,OP,1982,Coal,Coal,CT,6077,NE,41.0808,-101.1408,MRO,SWPP,,,,,,,,,,,,,,,,,,,,,,,,,,,,,,,,,,,,,,,,,,
Gerald Gentleman,1,681.3,665.0,665.0,0.0,OP,1979,Coal,Coal,CT,6077,NE,41.0808,-101.1408,MRO,SWPP,,,,,,,,,,,,,,,,,,,,,,,,,,,,,,,,,,,,,,,,,,
W H Sammis,7,680.0,600.0,600.0,400.0,OP,1971,Coal,Coal,CT,2866,OH,40.5317,-80.6319,RFC,PJM,,,,,,,,,,,,,,,,,,,,,,,,,,,,,,,,,,,,,,,,,,
W H Sammis,6,680.0,600.0,600.0,400.0,OP,1969,Coal,Coal,CT,2866,OH,40.5317,-80.6319,RFC,PJM,,,,,,,,,,,,,,,,,,,,,,,,,,,,,,,,,,,,,,,,,,
AES Petersburg,ST3,670.9,527.6,540.3,225.0,OP,1977,Coal,Coal,CT,994,IN,38.5281,-87.2525,RFC,MISO,,,,,,,,,,,,,,,,,,,,,,,,,,,,,,,,,,,,,,,,,,
AES Petersburg,4,670.9,529.6,534.6,220.0,OP,1986,Coal,Coal,CT,994,IN,38.5281,-87.2525,RFC,MISO,,,,,,,,,,,,,,,,,,,,,,,,,,,,,,,,,,,,,,,,,,
Virginia City Hybrid Energy Center,1,668.0,610.0,624.0,295.0,OP,2012,Coal,Coal,CT,56808,VA,36.916389,-82.338055,RFC,PJM,,,,,,,,,,,,,,,,,,,,,,,,,,,,,,,,,,,,,,,,,,
Gibson,4,667.9,622.0,627.0,200.0,OP,1979,Coal,Coal,CT,6113,IN,38.372222,-87.765833,RFC,MISO,,,,,,,,,,,,,,,,,,,,,,,,,,,,,,,,,,,,,,,,,,
Gibson,2,667.9,630.0,635.0,200.0,OP,1975,Coal,Coal,CT,6113,IN,38.372222,-87.765833,RFC,MISO,,,,,,,,,,,,,,,,,,,,,,,,,,,,,,,,,,,,,,,,,,
Gibson,3,667.9,630.0,635.0,200.0,OP,1978,Coal,Coal,CT,6113,IN,38.372222,-87.765833,RFC,MISO,,,,,,,,,,,,,,,,,,,,,,,,,,,,,,,,,,,,,,,,,,
Gibson,1,667.9,630.0,635.0,200.0,OP,1976,Coal,Coal,CT,6113,IN,38.372222,-87.765833,RFC,MISO,,,,,,,,,,,,,,,,,,,,,,,,,,,,,,,,,,,,,,,,,,
Gibson,5,667.9,620.0,625.0,200.0,OP,1982,Coal,Coal,CT,6113,IN,38.372222,-87.765833,RFC,MISO,,,,,,,,,,,,,,,,,,,,,,,,,,,,,,,,,,,,,,,,,,
"Hill Top Energy Center, LLC",GEN1,664.7,621.3,624.6,210.0,OP,2021,Gas_CC,Gas,CC,62565,PA,39.894212,-79.938201,RFC,PJM,,,,,,,,,,,,,,,,,,,,,,,,,,,,,,,,,,,,,,,,,,
Greensville County Power Station,ST01,663.9,611.8,648.6,0.0,OP,2018,Gas_CC,Gas,CC,59913,VA,36.718236,-77.649559,SERC,PJM,,,,,,,,,,,,,,,,,,,,,,,,,,,,,,,,,,,,,,,,,,
Homer City Generating Station,1,660.0,626.1,631.2,285.0,OP,1969,Coal,Coal,CT,3122,PA,40.512825,-79.196107,RFC,PJM,,,,,,,,,,,,,,,,,,,,,,,,,,,,,,,,,,,,,,,,,,
Joliet 29,8,660.0,518.0,522.0,120.0,OP,1966,Gas_SC,Gas,CT,384,IL,41.494636,-88.123827,RFC,PJM,,,,,,,,,,,,,,,,,,,,,,,,,,,,,,,,,,,,,,,,,,
Joliet 29,7,660.0,518.0,522.0,120.0,OP,1965,Gas_SC,Gas,CT,384,IL,41.494636,-88.123827,RFC,PJM,,,,,,,,,,,,,,,,,,,,,,,,,,,,,,,,,,,,,,,,,,
Homer City Generating Station,2,660.0,613.3,618.5,290.0,OP,1969,Coal,Coal,CT,3122,PA,40.512825,-79.196107,RFC,PJM,,,,,,,,,,,,,,,,,,,,,,,,,,,,,,,,,,,,,,,,,,
Williams,ST1,659.7,605.0,610.0,270.0,OP,1973,Coal,Coal,CT,3298,SC,33.0158,-79.9297,SERC,SCEG,,,,,,,,,,,,,,,,,,,,,,,,,,,,,,,,,,,,,,,,,,
Kincaid Generation LLC,2,659.5,554.0,554.0,220.0,OP,1968,Coal,Coal,CT,876,IL,39.590556,-89.496389,RFC,PJM,,,,,,,,,,,,,,,,,,,,,,,,,,,,,,,,,,,,,,,,,,
Kincaid Generation LLC,1,659.5,554.0,554.0,220.0,OP,1967,Coal,Coal,CT,876,IL,39.590556,-89.496389,RFC,PJM,,,,,,,,,,,,,,,,,,,,,,,,,,,,,,,,,,,,,,,,,,
Chalk Point Power,4,659.0,585.3,598.2,582.0,OP,1981,Gas_SC,Gas,CT,1571,MD,38.5444,-76.6861,RFC,PJM,,,,,,,,,,,,,,,,,,,,,,,,,,,,,,,,,,,,,,,,,,
Chalk Point Power,3,659.0,595.0,614.0,582.0,OP,1975,Gas_SC,Gas,CT,1571,MD,38.5444,-76.6861,RFC,PJM,,,,,,,,,,,,,,,,,,,,,,,,,,,,,,,,,,,,,,,,,,
Big Cajun 2,1,657.9,520.0,520.0,225.0,OP,1981,Coal,Coal,CT,6055,LA,30.7261,-91.3692,SERC,MISO,,,,,,,,,,,,,,,,,,,,,,,,,,,,,,,,,,,,,,,,,,
Roxboro,2,657.0,668.0,673.0,85.0,OP,1968,Coal,Coal,CT,2712,NC,36.4833,-79.0731,SERC,CPLE,,,,,,,,,,,,,,,,,,,,,,,,,,,,,,,,,,,,,,,,,,
W A Parish,8,654.0,610.0,610.0,175.0,OP,1982,Coal,Coal,CT,3470,TX,29.4828,-95.6311,TRE,ERCO,,,,,,,,,,,,,,,,,,,,,,,,,,,,,,,,,,,,,,,,,,
Cross,4,652.0,615.0,615.0,250.0,OP,2008,Coal,Coal,CT,130,SC,33.371506,-80.113235,SERC,SC,,,,,,,,,,,,,,,,,,,,,,,,,,,,,,,,,,,,,,,,,,
Nebraska City,1,651.6,650.3,650.3,180.0,OP,1979,Coal,Coal,CT,6096,NE,40.6214,-95.7764,MRO,SWPP,,,,,,,,,,,,,,,,,,,,,,,,,,,,,,,,,,,,,,,,,,
New Madrid,2,650.0,566.0,586.0,175.0,OP,1977,Coal,Coal,CT,2167,MO,36.5147,-89.5617,SERC,AECI,,,,,,,,,,,,,,,,,,,,,,,,,,,,,,,,,,,,,,,,,,
Cardinal,3,650.0,620.0,620.0,400.0,OP,1977,Coal,Coal,CT,2828,OH,40.2522,-80.6486,RFC,PJM,,,,,,,,,,,,,,,,,,,,,,,,,,,,,,,,,,,,,,,,,,
New Madrid,1,650.0,575.0,599.0,175.0,OP,1972,Coal,Coal,CT,2167,MO,36.5147,-89.5617,SERC,AECI,,,,,,,,,,,,,,,,,,,,,,,,,,,,,,,,,,,,,,,,,,
"Jackson Generation, LLC",02,644.3,600.0,558.0,340.0,OP,2022,Gas_CC,Gas,CC,62926,IL,41.438536,-88.110626,RFC,PJM,,,,,,,,,,,,,,,,,,,,,,,,,,,,,,,,,,,,,,,,,,
"Jackson Generation, LLC",01,644.3,600.0,558.0,340.0,OP,2022,Gas_CC,Gas,CC,62926,IL,41.438536,-88.110626,RFC,PJM,,,,,,,,,,,,,,,,,,,,,,,,,,,,,,,,,,,,,,,,,,
Point Beach Nuclear Plant,2,643.0,600.6,606.2,150.0,OP,1972,Nuclear,Nuclear,CT,4046,WI,44.2806,-87.5369,RFC,MISO,,,,,,,,,,,,,,,,,,,,,,,,,,,,,,,,,,,,,,,,,,
Point Beach Nuclear Plant,1,643.0,595.4,599.6,150.0,OP,1970,Nuclear,Nuclear,CT,4046,WI,44.2806,-87.5369,RFC,MISO,,,,,,,,,,,,,,,,,,,,,,,,,,,,,,,,,,,,,,,,,,
Nine Mile Point Nuclear Station,1,641.8,620.9,626.5,105.0,OP,1969,Nuclear,Nuclear,CT,2589,NY,43.5211,-76.41,NPCC,NYIS,,,,,,,,,,,,,,,,,,,,,,,,,,,,,,,,,,,,,,,,,,
Baldwin Energy Complex,2,634.5,581.0,595.0,400.0,OP,1973,Coal,Coal,CT,889,IL,38.205,-89.8544,SERC,MISO,,,,,,,,,,,,,,,,,,,,,,,,,,,,,,,,,,,,,,,,,,
William F Wyman Hybrid,4,632.4,602.1,605.8,60.0,OP,1978,Oil,Oil,CT,1507,ME,43.7508,-70.1567,NPCC,ISNE,,,,,,,,,,,,,,,,,,,,,,,,,,,,,,,,,,,,,,,,,,
Big Cajun 2,2,626.0,550.0,550.0,100.0,OP,1982,Gas_SC,Gas,CT,6055,LA,30.7261,-91.3692,SERC,MISO,,,,,,,,,,,,,,,,,,,,,,,,,,,,,,,,,,,,,,,,,,
Baldwin Energy Complex,1,625.1,576.0,590.0,270.0,OP,1970,Coal,Coal,CT,889,IL,38.205,-89.8544,SERC,MISO,,,,,,,,,,,,,,,,,,,,,,,,,,,,,,,,,,,,,,,,,,
Coleto Creek,1,622.4,655.0,655.0,175.0,OP,1980,Coal,Coal,CT,6178,TX,28.7128,-97.214167,TRE,ERCO,,,,,,,,,,,,,,,,,,,,,,,,,,,,,,,,,,,,,,,,,,
Laramie River Station,2,621.0,570.0,570.0,200.0,OP,1981,Coal,Coal,CT,6204,WY,42.108889,-104.8825,WECC,WACM,,,,,LaramieRiver2,ST-Col,False,48.0,108.0,-1.0,21.175,21.175,70779.83,7980.0,1.0,2.4,570.0,203.902,2451.508,73.22,8.9,73.219,9.499,73.22,10.099,73.219,10.698,73.22,11.297,0.0,0.0,laramieriver2,4030.0,4030.0,laramieriver2,WY-6204-2,73129.0,MBPP-1,Existing,WACM,RM_WACM,6204
Labadie,4,621.0,593.0,616.0,287.0,OP,1973,Coal,Coal,CT,2103,MO,38.562244,-90.837686,SERC,MISO,,,,,,,,,,,,,,,,,,,,,,,,,,,,,,,,,,,,,,,,,,
Rush Island,1,621.0,589.0,609.0,275.0,OP,1976,Coal,Coal,CT,6155,MO,38.131248,-90.263157,SERC,MISO,,,,,,,,,,,,,,,,,,,,,,,,,,,,,,,,,,,,,,,,,,
Labadie,3,621.0,593.0,616.0,280.0,OP,1972,Coal,Coal,CT,2103,MO,38.562244,-90.837686,SERC,MISO,,,,,,,,,,,,,,,,,,,,,,,,,,,,,,,,,,,,,,,,,,
Bowline Point,2,621.0,573.6,568.8,100.0,OP,1974,Gas_SC,Gas,CT,2625,NY,41.2044,-73.9689,NPCC,NYIS,,,,,,,,,,,,,,,,,,,,,,,,,,,,,,,,,,,,,,,,,,
Rush Island,2,621.0,589.0,609.0,280.0,OP,1977,Coal,Coal,CT,6155,MO,38.131248,-90.263157,SERC,MISO,,,,,,,,,,,,,,,,,,,,,,,,,,,,,,,,,,,,,,,,,,
Laramie River Station,3,621.0,570.0,570.0,230.0,OP,1982,Coal,Coal,CT,6204,WY,42.108889,-104.8825,WECC,WACM,,,,,LaramieRiver3,ST-Col,False,48.0,108.0,-1.0,21.175,21.175,70779.83,7980.0,1.0,2.4,570.0,211.452,2851.214,71.709,11.158,71.71,11.169,71.71,11.179,71.709,11.19,71.71,11.201,0.0,0.0,laramieriver3,4029.0,4029.0,laramieriver3,WY-6204-3,73130.0,MBPP-2,Existing,WACM,RM_WACM,6204
Roseton Generating Facility,2,621.0,605.7,607.7,140.0,OP,1974,Gas_SC,Gas,CT,8006,NY,41.573783,-73.966269,NPCC,NYIS,,,,,,,,,,,,,,,,,,,,,,,,,,,,,,,,,,,,,,,,,,
James E. Rogers Energy Complex,5,621.0,544.0,546.0,127.0,OP,1972,Gas_SC,Gas,CT,2721,NC,35.22,-81.7594,SERC,DUK,,,,,,,,,,,,,,,,,,,,,,,,,,,,,,,,,,,,,,,,,,
Roseton Generating Facility,1,621.0,599.0,602.8,140.0,OP,1974,Oil,Oil,CT,8006,NY,41.573783,-73.966269,NPCC,NYIS,,,,,,,,,,,,,,,,,,,,,,,,,,,,,,,,,,,,,,,,,,
Bowline Point,1,621.0,586.0,593.2,80.0,OP,1972,Gas_SC,Gas,CT,2625,NY,41.2044,-73.9689,NPCC,NYIS,,,,,,,,,,,,,,,,,,,,,,,,,,,,,,,,,,,,,,,,,,
Laramie River Station,1,621.0,560.0,560.0,200.0,OP,1981,Coal,Coal,CT,6204,WY,42.108889,-104.8825,WECC,WACM,,,,,LaramieRiver2,,,48.0,108.0,-1.0,21.175,21.175,70779.83,7980.0,1.0,2.4,570.0,207.677,2651.361,72.4645,10.029,72.46449999999999,10.334,,,,,,,,,,4030.0,,laramieriver2,,73129.0,MBPP-1,Existing,WACM,RM_WACM,
Big Cajun 2,3,619.0,540.0,540.0,180.0,OP,1983,Coal,Coal,CT,6055,LA,30.7261,-91.3692,SERC,MISO,,,,,,,,,,,,,,,,,,,,,,,,,,,,,,,,,,,,,,,,,,
Newton,1,617.4,595.0,615.0,200.0,OP,1977,Coal,Coal,CT,6017,IL,38.9361,-88.2781,SERC,MISO,,,,,,,,,,,,,,,,,,,,,,,,,,,,,,,,,,,,,,,,,,
Jim Bridger,2,617.0,539.0,539.0,40.0,OP,1975,Coal,Coal,CT,8066,WY,41.7378,-108.7875,WECC,PACE,,,,,Jim_Bridger_2,ST-Col,False,48.0,108.0,-1.0,18.445,18.445,61654.5,7378.0,1.0,2.4,527.0,118.121,1461.133,81.776,9.006,81.775,9.615,81.776,10.223,81.776,10.832,81.776,11.441,0.0,0.0,jimbridger2,3462.0,3462.0,jimbridger2,WY-8066-2,65387.0,BRIDGER2,Existing,PAWY,BS_PACE,8066
Cardinal,1,615.2,585.0,595.0,340.0,OP,1967,Coal,Coal,CT,2828,OH,40.2522,-80.6486,RFC,PJM,,,,,,,,,,,,,,,,,,,,,,,,,,,,,,,,,,,,,,,,,,
Cardinal,2,615.2,585.0,595.0,340.0,OP,1967,Coal,Coal,CT,2828,OH,40.2522,-80.6486,RFC,PJM,,,,,,,,,,,,,,,,,,,,,,,,,,,,,,,,,,,,,,,,,,
Fayette Power Project,2,615.0,590.0,598.0,156.0,OP,1980,Coal,Coal,CT,6179,TX,29.9172,-96.7506,TRE,ERCO,,,,,,,,,,,,,,,,,,,,,,,,,,,,,,,,,,,,,,,,,,
Fayette Power Project,1,615.0,590.0,598.0,156.0,OP,1979,Coal,Coal,CT,6179,TX,29.9172,-96.7506,TRE,ERCO,,,,,,,,,,,,,,,,,,,,,,,,,,,,,,,,,,,,,,,,,,
R S Nelson,6,614.6,517.5,536.9,150.0,OP,1982,Coal,Coal,CT,1393,LA,30.2844,-93.2911,SERC,MISO,,,,,,,,,,,,,,,,,,,,,,,,,,,,,,,,,,,,,,,,,,
W A Parish,7,614.6,577.0,577.0,175.0,OP,1980,Coal,Coal,CT,3470,TX,29.4828,-95.6311,TRE,ERCO,,,,,,,,,,,,,,,,,,,,,,,,,,,,,,,,,,,,,,,,,,
R E Ginna Nuclear Power Plant,1,614.0,580.3,582.0,133.0,OP,1970,Nuclear,Nuclear,CT,6122,NY,43.2777,-77.3099,NPCC,NYIS,,,,,,,,,,,,,,,,,,,,,,,,,,,,,,,,,,,,,,,,,,
John W Turk Jr Power Plant,1,609.0,650.0,650.0,350.0,OP,2012,Coal,Coal,CT,56564,AR,33.649722,-93.811944,MRO,SWPP,,,,,,,,,,,,,,,,,,,,,,,,,,,,,,,,,,,,,,,,,,
Jim Bridger,4,608.3,526.0,526.0,65.0,OP,1979,Coal,Coal,CT,8066,WY,41.7378,-108.7875,WECC,PACE,,,,,Jim_Bridger_4,ST-Col,False,48.0,108.0,-1.0,18.55,18.55,62005.47,7420.0,1.0,2.4,530.0,140.0,1600.793,78.0,8.975,78.0,9.23,78.0,9.485,78.0,9.74,78.0,9.996,0.0,0.0,jimbridger4,3391.0,3391.0,jimbridger4,WY-8066-4,65389.0,BRIDGER4,Existing,PAWY,BS_PACE,8066
Jim Bridger,3,608.3,523.0,523.0,65.0,OP,1976,Coal,Coal,CT,8066,WY,41.7378,-108.7875,WECC,PACE,,,,,Jim_Bridger_3,ST-Col,False,48.0,108.0,-1.0,18.305,18.305,61186.53,7322.0,1.0,2.4,523.0,140.0,1803.496,76.6,10.147,76.6,10.435,76.6,10.722,76.6,11.009,76.6,11.296,0.0,0.0,jimbridger3,3461.0,3461.0,jimbridger3,WY-8066-3,65388.0,BRIDGER3,Existing,PAWY,BS_PACE,8066
Jim Bridger,1,608.3,531.0,531.0,50.0,OP,1974,Coal,Coal,CT,8066,WY,41.7378,-108.7875,WECC,PACE,,,,,Jim_Bridger_1,ST-Col,False,48.0,108.0,-1.0,18.585,18.585,62122.46,7434.0,1.0,2.4,531.0,121.105,1364.22,81.979,9.378,81.979,9.582,81.979,9.786,81.979,9.991,81.979,10.195,0.0,0.0,jimbridger1,3463.0,3463.0,jimbridger1,WY-8066-1,65386.0,BRIDGER1,Existing,PAWY,BS_PACE,8066
Coal Creek,2,604.8,573.9,573.9,285.0,OP,1980,Coal,Coal,CT,6030,ND,47.377743,-101.157058,MRO,MISO,,,,,,,,,,,,,,,,,,,,,,,,,,,,,,,,,,,,,,,,,,
Coal Creek,1,604.8,568.3,568.3,285.0,OP,1979,Coal,Coal,CT,6030,ND,47.377743,-101.157058,MRO,MISO,,,,,,,,,,,,,,,,,,,,,,,,,,,,,,,,,,,,,,,,,,
Allen S King,1,598.4,511.0,511.0,345.0,OP,1958,Coal,Coal,CT,1915,MN,45.03,-92.7786,MRO,MISO,,,,,,,,,,,,,,,,,,,,,,,,,,,,,,,,,,,,,,,,,,
Weston,4,595.0,553.2,558.5,230.0,OP,2008,Coal,Coal,CT,4078,WI,44.8606,-89.6553,MRO,MISO,,,,,,,,,,,,,,,,,,,,,,,,,,,,,,,,,,,,,,,,,,
GREC,2,594.0,492.5,492.5,150.0,OP,1985,Coal,Coal,CT,165,OK,36.190278,-95.2894,MRO,SWPP,,,,,,,,,,,,,,,,,,,,,,,,,,,,,,,,,,,,,,,,,,
Okeechobee Clean Energy Center,1ST,593.3,593.3,593.3,0.0,OP,2019,Gas_CC,Gas,CC,60345,FL,27.634167,-80.791111,SERC,FPL,,,,,,,,,,,,,,,,,,,,,,,,,,,,,,,,,,,,,,,,,,
Prairie Island,2,593.1,519.0,546.0,500.0,OP,1974,Nuclear,Nuclear,CT,1925,MN,44.622,-92.6333,MRO,MISO,,,,,,,,,,,,,,,,,,,,,,,,,,,,,,,,,,,,,,,,,,
Prairie Island,1,593.1,521.0,546.0,500.0,OP,1974,Nuclear,Nuclear,CT,1925,MN,44.622,-92.6333,MRO,MISO,,,,,,,,,,,,,,,,,,,,,,,,,,,,,,,,,,,,,,,,,,
H L Spurlock,2,592.1,510.0,510.0,280.0,OP,1981,Coal,Coal,CT,6041,KY,38.7,-83.8181,SERC,PJM,,,,,,,,,,,,,,,,,,,,,,,,,,,,,,,,,,,,,,,,,,
R S Nelson,4,591.8,424.7,434.3,163.0,OP,1970,Gas_SC,Gas,CT,1393,LA,30.2844,-93.2911,SERC,MISO,,,,,,,,,,,,,,,,,,,,,,,,,,,,,,,,,,,,,,,,,,
Sabine,4,591.6,488.8,493.9,185.0,OP,1974,Gas_SC,Gas,CT,3459,TX,30.0242,-93.878,SERC,MISO,,,,,,,,,,,,,,,,,,,,,,,,,,,,,,,,,,,,,,,,,,
Cross,3,591.0,610.0,610.0,250.0,OP,2007,Coal,Coal,CT,130,SC,33.371506,-80.113235,SERC,SC,,,,,,,,,,,,,,,,,,,,,,,,,,,,,,,,,,,,,,,,,,
Cross,1,590.9,580.0,585.0,260.0,OP,1995,Coal,Coal,CT,130,SC,33.371506,-80.113235,SERC,SC,,,,,,,,,,,,,,,,,,,,,,,,,,,,,,,,,,,,,,,,,,
Seward (PA),FB1,585.0,521.0,521.0,200.0,OP,2004,Coal,Coal,CT,3130,PA,40.40625,-79.03366,RFC,PJM,,,,,,,,,,,,,,,,,,,,,,,,,,,,,,,,,,,,,,,,,,
Canal,1,585.0,560.0,567.0,200.0,OP,1968,Oil,Oil,CT,1599,MA,41.7694,-70.5097,NPCC,ISNE,,,,,,,,,,,,,,,,,,,,,,,,,,,,,,,,,,,,,,,,,,
George Neal North,3,584.1,503.9,503.9,150.0,OP,1975,Coal,Coal,CT,1091,IA,42.299794,-96.361707,MRO,MISO,,,,,,,,,,,,,,,,,,,,,,,,,,,,,,,,,,,,,,,,,,
Little Gypsy,3,582.2,501.1,514.0,150.0,OP,1969,Gas_SC,Gas,CT,1402,LA,30.005067,-90.461694,SERC,MISO,,,,,,,,,,,,,,,,,,,,,,,,,,,,,,,,,,,,,,,,,,
W A Parish,4,580.5,552.0,552.0,60.0,OP,1968,Gas_SC,Gas,CT,3470,TX,29.4828,-95.6311,TRE,ERCO,,,,,,,,,,,,,,,,,,,,,,,,,,,,,,,,,,,,,,,,,,
Mountain Creek,8,580.5,582.0,582.0,100.0,OP,1967,Gas_SC,Gas,CT,3453,TX,32.7231,-96.9358,TRE,ERCO,,,,,,,,,,,,,,,,,,,,,,,,,,,,,,,,,,,,,,,,,,
Canal,2,580.0,558.8,562.0,170.0,OP,1976,Oil,Oil,CT,1599,MA,41.7694,-70.5097,NPCC,ISNE,,,,,,,,,,,,,,,,,,,,,,,,,,,,,,,,,,,,,,,,,,
Warren County,ST01,579.7,579.7,579.7,60.0,OP,2014,Gas_CC,Gas,CC,55939,VA,38.971667,-78.177222,SERC,PJM,,,,,,,,,,,,,,,,,,,,,,,,,,,,,,,,,,,,,,,,,,
Brunswick County Power Station,ST01,579.7,579.4,616.3,281.0,OP,2016,Gas_CC,Gas,CC,58260,VA,36.765,-77.713889,SERC,PJM,,,,,,,,,,,,,,,,,,,,,,,,,,,,,,,,,,,,,,,,,,
Gulf Clean Energy Center,7,578.0,475.0,475.0,280.0,OP,1973,Gas_SC,Gas,CT,641,FL,30.5661,-87.2244,SERC,SOCO,,,,,,,,,,,,,,,,,,,,,,,,,,,,,,,,,,,,,,,,,,
Jack Watson,5,578.0,485.0,485.0,156.3,OP,1973,Gas_SC,Gas,CT,2049,MS,30.4392,-89.0286,SERC,SOCO,,,,,,,,,,,,,,,,,,,,,,,,,,,,,,,,,,,,,,,,,,
FirstEnergy Fort Martin Power Station,2,576.0,546.0,546.0,220.0,OP,1968,Coal,Coal,CT,3943,WV,39.710833,-79.9275,RFC,PJM,,,,,,,,,,,,,,,,,,,,,,,,,,,,,,,,,,,,,,,,,,
FirstEnergy Fort Martin Power Station,1,576.0,552.0,552.0,220.0,OP,1967,Coal,Coal,CT,3943,WV,39.710833,-79.9275,RFC,PJM,,,,,,,,,,,,,,,,,,,,,,,,,,,,,,,,,,,,,,,,,,
Labadie,1,573.7,593.0,616.0,290.0,OP,1970,Coal,Coal,CT,2103,MO,38.562244,-90.837686,SERC,MISO,,,,,,,,,,,,,,,,,,,,,,,,,,,,,,,,,,,,,,,,,,
Labadie,2,573.7,593.0,616.0,289.0,OP,1971,Coal,Coal,CT,2103,MO,38.562244,-90.837686,SERC,MISO,,,,,,,,,,,,,,,,,,,,,,,,,,,,,,,,,,,,,,,,,,
Muskogee,4,572.0,487.0,487.0,200.0,OP,1977,Gas_SC,Gas,CT,2952,OK,35.76135,-95.28732,MRO,SWPP,,,,,,,,,,,,,,,,,,,,,,,,,,,,,,,,,,,,,,,,,,
Muskogee,6,572.0,503.0,503.0,200.0,OP,1984,Coal,Coal,CT,2952,OK,35.76135,-95.28732,MRO,SWPP,,,,,,,,,,,,,,,,,,,,,,,,,,,,,,,,,,,,,,,,,,
Muskogee,5,572.0,488.0,488.0,200.0,OP,1978,Gas_SC,Gas,CT,2952,OK,35.76135,-95.28732,MRO,SWPP,,,,,,,,,,,,,,,,,,,,,,,,,,,,,,,,,,,,,,,,,,
Mt Storm,1,570.2,554.0,569.0,265.0,OP,1965,Coal,Coal,CT,3954,WV,39.2008,-79.2636,RFC,PJM,,,,,,,,,,,,,,,,,,,,,,,,,,,,,,,,,,,,,,,,,,
Mt Storm,2,570.2,555.0,570.0,265.0,OP,1966,Coal,Coal,CT,3954,WV,39.2008,-79.2636,RFC,PJM,,,,,,,,,,,,,,,,,,,,,,,,,,,,,,,,,,,,,,,,,,
Sooner,1,569.0,516.0,516.0,200.0,OP,1979,Coal,Coal,CT,6095,OK,36.45307,-97.05279,MRO,SWPP,,,,,,,,,,,,,,,,,,,,,,,,,,,,,,,,,,,,,,,,,,
Sooner,2,569.0,515.0,515.0,200.0,OP,1980,Coal,Coal,CT,6095,OK,36.45307,-97.05279,MRO,SWPP,,,,,,,,,,,,,,,,,,,,,,,,,,,,,,,,,,,,,,,,,,
Hawthorn,5,569.0,561.6,561.6,285.0,OP,1969,Coal,Coal,CT,2079,MO,39.1306,-94.4778,MRO,SWPP,,,,,,,,,,,,,,,,,,,,,,,,,,,,,,,,,,,,,,,,,,
Tolk,2,567.9,535.0,535.0,125.0,OP,1985,Coal,Coal,CT,6194,TX,34.186494,-102.56999,MRO,SWPP,,,,,,,,,,,,,,,,,,,,,,,,,,,,,,,,,,,,,,,,,,
Tolk,1,567.9,532.0,532.0,125.0,OP,1982,Coal,Coal,CT,6194,TX,34.186494,-102.56999,MRO,SWPP,,,,,,,,,,,,,,,,,,,,,,,,,,,,,,,,,,,,,,,,,,
Seminole,1,567.0,500.0,500.0,70.0,OP,1971,Gas_SC,Gas,CT,2956,OK,34.96645,-96.7258,MRO,SWPP,,,,,,,,,,,,,,,,,,,,,,,,,,,,,,,,,,,,,,,,,,
Seminole,3,567.0,498.0,498.0,70.0,OP,1975,Gas_SC,Gas,CT,2956,OK,34.96645,-96.7258,MRO,SWPP,,,,,,,,,,,,,,,,,,,,,,,,,,,,,,,,,,,,,,,,,,
Seminole,2,567.0,510.0,510.0,70.0,OP,1973,Gas_SC,Gas,CT,2956,OK,34.96645,-96.7258,MRO,SWPP,,,,,,,,,,,,,,,,,,,,,,,,,,,,,,,,,,,,,,,,,,
Trimble County,1,566.1,511.0,511.0,141.0,OP,1990,Coal,Coal,CT,6071,KY,38.5847,-85.4117,SERC,LGEE,,,,,,,,,,,,,,,,,,,,,,,,,,,,,,,,,,,,,,,,,,
J K Spruce,1,566.0,560.0,560.0,122.0,OP,1992,Coal,Coal,CT,7097,TX,29.309722,-98.3203,TRE,ERCO,,,,,,,,,,,,,,,,,,,,,,,,,,,,,,,,,,,,,,,,,,
Northside Generating Station,ST3,563.7,524.0,524.0,50.0,OP,1977,Gas_SC,Gas,CT,667,FL,30.4172,-81.5525,SERC,JEA,,,,,,,,,,,,,,,,,,,,,,,,,,,,,,,,,,,,,,,,,,
Clay Boswell,4,558.0,585.0,585.0,185.0,OP,1980,Coal,Coal,CT,1893,MN,47.2611,-93.6528,MRO,MISO,,,,,,,,,,,,,,,,,,,,,,,,,,,,,,,,,,,,,,,,,,
Welsh,1,558.0,500.0,500.0,150.0,OP,1977,Coal,Coal,CT,6139,TX,33.05522,-94.839993,MRO,SWPP,,,,,,,,,,,,,,,,,,,,,,,,,,,,,,,,,,,,,,,,,,
Brame Energy Center,2,558.0,496.6,0.0,180.0,OP,1982,Coal,Coal,CT,6190,LA,31.395,-92.716667,SERC,MISO,,,,,,,,,,,,,,,,,,,,,,,,,,,,,,,,,,,,,,,,,,
Flint Creek,1,558.0,494.0,494.0,190.0,OP,1978,Coal,Coal,CT,6138,AR,36.2561,-94.5241,MRO,SWPP,,,,,,,,,,,,,,,,,,,,,,,,,,,,,,,,,,,,,,,,,,
Welsh,3,558.0,500.0,500.0,150.0,OP,1982,Coal,Coal,CT,6139,TX,33.05522,-94.839993,MRO,SWPP,,,,,,,,,,,,,,,,,,,,,,,,,,,,,,,,,,,,,,,,,,
Miami Fort,8,557.7,510.0,510.0,200.0,OP,1978,Coal,Coal,CT,2832,OH,39.1128,-84.8036,RFC,PJM,,,,,,,,,,,,,,,,,,,,,,,,,,,,,,,,,,,,,,,,,,
Miami Fort,7,557.1,510.0,510.0,200.0,OP,1975,Coal,Coal,CT,2832,OH,39.1128,-84.8036,RFC,PJM,,,,,,,,,,,,,,,,,,,,,,,,,,,,,,,,,,,,,,,,,,
Ghent,1,556.9,474.0,476.0,218.0,OP,1974,Coal,Coal,CT,1356,KY,38.7497,-85.035,SERC,LGEE,,,,,,,,,,,,,,,,,,,,,,,,,,,,,,,,,,,,,,,,,,
Ghent,3,556.5,485.0,478.0,210.0,OP,1981,Coal,Coal,CT,1356,KY,38.7497,-85.035,SERC,LGEE,,,,,,,,,,,,,,,,,,,,,,,,,,,,,,,,,,,,,,,,,,
Ghent,2,556.3,495.0,477.0,225.0,OP,1977,Coal,Coal,CT,1356,KY,38.7497,-85.035,SERC,LGEE,,,,,,,,,,,,,,,,,,,,,,,,,,,,,,,,,,,,,,,,,,
Anclote,1,556.2,508.0,521.0,80.0,OP,1974,Gas_SC,Gas,CT,8048,FL,28.184444,-82.788611,SERC,FPC,,,,,,,,,,,,,,,,,,,,,,,,,,,,,,,,,,,,,,,,,,
Ghent,4,556.2,465.0,487.0,215.0,OP,1984,Coal,Coal,CT,1356,KY,38.7497,-85.035,SERC,LGEE,,,,,,,,,,,,,,,,,,,,,,,,,,,,,,,,,,,,,,,,,,
Anclote,2,556.2,505.0,514.0,80.0,OP,1978,Gas_SC,Gas,CT,8048,FL,28.184444,-82.788611,SERC,FPC,,,,,,,,,,,,,,,,,,,,,,,,,,,,,,,,,,,,,,,,,,
Cross,2,556.2,565.0,570.0,250.0,OP,1984,Coal,Coal,CT,130,SC,33.371506,-80.113235,SERC,SC,,,,,,,,,,,,,,,,,,,,,,,,,,,,,,,,,,,,,,,,,,
Columbia (WI),1,556.0,579.3,582.3,130.0,OP,1975,Coal,Coal,CT,8023,WI,43.4864,-89.4203,MRO,MISO,,,,,,,,,,,,,,,,,,,,,,,,,,,,,,,,,,,,,,,,,,
Columbia (WI),2,556.0,568.8,578.8,130.0,OP,1978,Coal,Coal,CT,8023,WI,43.4864,-89.4203,MRO,MISO,,,,,,,,,,,,,,,,,,,,,,,,,,,,,,,,,,,,,,,,,,
Lake Catherine,4,552.5,522.0,522.0,45.0,OP,1970,Gas_SC,Gas,CT,170,AR,34.4341,-92.9049,SERC,MISO,,,,,,,,,,,,,,,,,,,,,,,,,,,,,,,,,,,,,,,,,,
Pawnee,1,552.3,505.0,505.0,200.0,OP,1981,Coal,Coal,CT,6248,CO,40.2217,-103.6803,WECC,PSCO,,,,,Pawnee 1,ST-Col,False,48.0,108.0,-1.0,17.675,17.675,59080.68,7070.0,1.0,2.4,505.0,205.741,2555.157,59.852,11.073,59.851,11.207,59.852,11.342,59.852,11.476,59.852,11.61,0.0,0.0,pawnee1,13796.0,13796.0,pawnee1,CO-6248-1,70310.0,PAWNEE,Existing,PSCO,RM_PSCO,6248
Sioux,1,549.7,487.0,497.0,253.0,OP,1967,Coal,Coal,CT,2107,MO,38.915479,-90.290247,SERC,MISO,,,,,,,,,,,,,,,,,,,,,,,,,,,,,,,,,,,,,,,,,,
Sioux,2,549.7,487.0,497.0,252.0,OP,1968,Coal,Coal,CT,2107,MO,38.915479,-90.290247,SERC,MISO,,,,,,,,,,,,,,,,,,,,,,,,,,,,,,,,,,,,,,,,,,
Victor J Daniel Jr,1,548.3,502.0,502.0,165.0,OP,1977,Coal,Coal,CT,6073,MS,30.5322,-88.5553,SERC,SOCO,,,,,,,,,,,,,,,,,,,,,,,,,,,,,,,,,,,,,,,,,,
Victor J Daniel Jr,2,548.3,502.0,502.0,165.0,OP,1981,Coal,Coal,CT,6073,MS,30.5322,-88.5553,SERC,SOCO,,,,,,,,,,,,,,,,,,,,,,,,,,,,,,,,,,,,,,,,,,
Baxter Wilson,1,544.6,494.3,505.6,190.0,SB,1967,Gas_SC,Gas,CT,2050,MS,32.2831,-90.9306,SERC,MISO,,,,,,,,,,,,,,,,,,,,,,,,,,,,,,,,,,,,,,,,,,
Mill Creek (KY),4,543.6,477.0,486.0,175.0,OP,1982,Coal,Coal,CT,1364,KY,38.0525,-85.9103,SERC,LGEE,,,,,,,,,,,,,,,,,,,,,,,,,,,,,,,,,,,,,,,,,,
Huntington,1,541.3,459.0,459.0,60.0,OP,1977,Coal,Coal,CT,8069,UT,39.3792,-111.0781,WECC,PACE,,,,,Huntington_1,ST-Col,False,48.0,108.0,-1.0,16.065,16.065,53699.07,6426.0,1.0,2.4,459.0001,103.041,1195.922,71.192,8.642,71.191,8.823,71.192,9.004,71.192,9.184,71.192,9.365,0.0,0.0,huntington1,3655.0,3655.0,huntington1,UT-8069-1,65795.0,HUNTN G1,Existing,PAUT,BS_PACE,8069
Merom,2,540.0,489.0,494.0,240.0,OP,1982,Coal,Coal,CT,6213,IN,39.0694,-87.5108,RFC,MISO,,,,,,,,,,,,,,,,,,,,,,,,,,,,,,,,,,,,,,,,,,
Merom,1,540.0,488.0,495.0,250.0,OP,1983,Coal,Coal,CT,6213,IN,39.0694,-87.5108,RFC,MISO,,,,,,,,,,,,,,,,,,,,,,,,,,,,,,,,,,,,,,,,,,
Michigan City,12,540.0,455.0,455.0,310.0,OP,1974,Coal,Coal,CT,997,IN,41.7208,-86.9086,RFC,MISO,,,,,,,,,,,,,,,,,,,,,,,,,,,,,,,,,,,,,,,,,,
Arthur Kill Generating Station,3,535.5,519.0,523.4,150.0,OP,1969,Gas_SC,Gas,CT,2490,NY,40.591564,-74.200035,NPCC,NYIS,,,,,,,,,,,,,,,,,,,,,,,,,,,,,,,,,,,,,,,,,,
Craig (CO),3,534.8,448.0,448.0,130.0,OP,1984,Coal,Coal,CT,6021,CO,40.4627,-107.5912,WECC,WACM,,,,,,,,,,,,,,,,,,,,,,,,,,,,,,,,,,,,,,,,,,
Cayuga,2,531.0,495.0,500.0,230.0,OP,1972,Coal,Coal,CT,1001,IN,39.9242,-87.4244,RFC,MISO,,,,,,,,,,,,,,,,,,,,,,,,,,,,,,,,,,,,,,,,,,
Lake Hubbard,2,531.0,523.0,523.0,40.0,OP,1973,Gas_SC,Gas,CT,3452,TX,32.8358,-96.5458,TRE,ERCO,,,,,,,,,,,,,,,,,,,,,,,,,,,,,,,,,,,,,,,,,,
Cayuga,1,531.0,500.0,505.0,300.0,OP,1970,Coal,Coal,CT,1001,IN,39.9242,-87.4244,RFC,MISO,,,,,,,,,,,,,,,,,,,,,,,,,,,,,,,,,,,,,,,,,,
Moxie Freedom Generation Plant,GEN2,529.0,490.0,525.0,200.0,OP,2018,Gas_CC,Gas,CC,59906,PA,41.113056,-76.158056,RFC,PJM,,,,,,,,,,,,,,,,,,,,,,,,,,,,,,,,,,,,,,,,,,
Moxie Freedom Generation Plant,GEN1,529.0,490.0,525.0,200.0,OP,2018,Gas_CC,Gas,CC,59906,PA,41.113056,-76.158056,RFC,PJM,,,,,,,,,,,,,,,,,,,,,,,,,,,,,,,,,,,,,,,,,,
Hunter,3,527.2,471.0,471.0,60.0,OP,1983,Coal,Coal,CT,6165,UT,39.1747,-111.0289,WECC,PACE,,,,,Hunter_3,ST-Col,False,48.0,108.0,-1.0,16.1,16.1,53816.07,6440.0,1.0,2.4,460.0,154.851,1817.873,61.03,8.68,61.03,9.418,61.03,10.155,61.029,10.893,61.03,11.63,0.0,0.0,hunter3,3638.0,3638.0,hunter3,UT-6165-3,65500.0,EHUNTR 3,Existing,PAUT,BS_PACE,6165
West County Energy Center,1ST,527.0,486.2,482.2,350.0,OP,2009,Gas_CC,Gas,CC,56407,FL,26.6986,-80.3747,SERC,FPL,,,,,,,,,,,,,,,,,,,,,,,,,,,,,,,,,,,,,,,,,,
West County Energy Center,2ST,527.0,485.9,482.2,350.0,OP,2009,Gas_CC,Gas,CC,56407,FL,26.6986,-80.3747,SERC,FPL,,,,,,,,,,,,,,,,,,,,,,,,,,,,,,,,,,,,,,,,,,
West County Energy Center,3ST,527.0,486.2,482.2,350.0,OP,2011,Gas_CC,Gas,CC,56407,FL,26.6986,-80.3747,SERC,FPL,,,,,,,,,,,,,,,,,,,,,,,,,,,,,,,,,,,,,,,,,,
Stryker Creek,ST2,526.6,502.0,502.0,35.0,OP,1965,Gas_SC,Gas,CT,3504,TX,31.93985,-94.989834,TRE,ERCO,,,,,,,,,,,,,,,,,,,,,,,,,,,,,,,,,,,,,,,,,,
Hunter,2,525.0,446.0,446.0,80.0,OP,1980,Coal,Coal,CT,6165,UT,39.1747,-111.0289,WECC,PACE,,,,,Hunter_2,ST-Col,False,48.0,108.0,-1.0,15.05,15.05,50306.32,6020.0,1.0,2.4,430.0,125.417,1504.706,60.916,8.662,60.917,9.636,60.917,10.611,60.916,11.585,60.917,12.559,0.0,0.0,hunter2,3637.0,3637.0,hunter2,UT-6165-2,65495.0,EHUNTR 2,Existing,PAUT,BS_PACE,6165
Hunter,1,525.0,446.0,446.0,80.0,OP,1978,Coal,Coal,CT,6165,UT,39.1747,-111.0289,WECC,PACE,,,,,Hunter_1,ST-Col,False,48.0,108.0,-1.0,16.485,16.485,55102.97,6594.0,1.0,2.4,471.0,137.375,1479.846,66.725,7.565,66.725,8.324,66.725,9.084,66.725,9.843,66.725,10.603,0.0,0.0,hunter1,3636.0,3636.0,hunter1,UT-6165-1,65490.0,EHUNTR 1,Existing,PAUT,BS_PACE,6165
Birdsboro Power,GEN1,525.0,485.0,485.0,90.0,OP,2019,Gas_CC,Gas,CC,61035,PA,40.268522,-75.799669,RFC,PJM,,,,,,,,,,,,,,,,,,,,,,,,,,,,,,,,,,,,,,,,,,
AES Petersburg,ST2,523.3,421.8,432.2,225.0,OP,1969,Coal,Coal,CT,994,IN,38.5281,-87.2525,RFC,MISO,,,,,,,,,,,,,,,,,,,,,,,,,,,,,,,,,,,,,,,,,,
Mt Storm,3,522.0,520.0,537.0,300.0,OP,1973,Coal,Coal,CT,3954,WV,39.2008,-79.2636,RFC,PJM,,,,,,,,,,,,,,,,,,,,,,,,,,,,,,,,,,,,,,,,,,
Long Ridge Energy Generation,HPPP1,521.9,485.0,485.0,190.0,OP,2021,Gas_CC,Gas,CC,61322,OH,39.704887,-80.841847,RFC,PJM,,,,,,,,,,,,,,,,,,,,,,,,,,,,,,,,,,,,,,,,,,
Red Hills Generating Facility,RHGF,513.7,440.0,440.0,350.0,OP,2001,Coal,Coal,CT,55076,MS,33.3761,-89.2183,SERC,TVA,,,,,,,,,,,,,,,,,,,,,,,,,,,,,,,,,,,,,,,,,,
Wolf Hollow II,STG6,511.2,458.3,485.1,60.0,OP,2017,Gas_CC,Gas,CC,59812,TX,32.337679,-97.734612,TRE,ERCO,,,,,,,,,,,,,,,,,,,,,,,,,,,,,,,,,,,,,,,,,,
D B Wilson,1,509.4,417.0,417.0,300.0,OP,1984,Coal,Coal,CT,6823,KY,37.4497,-87.0806,SERC,MISO,,,,,,,,,,,,,,,,,,,,,,,,,,,,,,,,,,,,,,,,,,
Colorado Bend II,STG9,508.5,478.4,490.5,70.0,OP,2017,Gas_CC,Gas,CC,60122,TX,29.289415,-96.065399,TRE,ERCO,,,,,,,,,,,,,,,,,,,,,,,,,,,,,,,,,,,,,,,,,,
Sabine,5,507.4,400.2,406.3,55.0,OP,1979,Gas_SC,Gas,CT,3459,TX,30.0242,-93.878,SERC,MISO,,,,,,,,,,,,,,,,,,,,,,,,,,,,,,,,,,,,,,,,,,
Lake Charles Power,1C,500.0,500.0,500.0,0.0,OP,2020,Gas_CC,Gas,CC,60927,LA,30.272631,-93.299056,SERC,MISO,,,,,,,,,,,,,,,,,,,,,,,,,,,,,,,,,,,,,,,,,,
Montgomery County,1C,500.0,500.0,500.0,0.0,OP,2021,Gas_CC,Gas,CC,60925,TX,30.44083,-95.5275,SERC,MISO,,,,,,,,,,,,,,,,,,,,,,,,,,,,,,,,,,,,,,,,,,
Riviera,5ST,500.0,478.5,490.3,0.0,OP,2014,Gas_CC,Gas,CC,619,FL,26.7653,-80.0525,SERC,FPL,,,,,,,,,,,,,,,,,,,,,,,,,,,,,,,,,,,,,,,,,,
Cape Canaveral,3ST,500.0,478.8,490.6,189.0,OP,2013,Gas_CC,Gas,CC,609,FL,28.4698,-80.7644,SERC,FPL,,,,,,,,,,,,,,,,,,,,,,,,,,,,,,,,,,,,,,,,,,
St. Charles Power Station (LA),1C,500.0,500.0,500.0,0.0,OP,2019,Gas_CC,Gas,CC,60926,LA,30.01,-90.460833,SERC,MISO,,,,,,,,,,,,,,,,,,,,,,,,,,,,,,,,,,,,,,,,,,
Bonanza,1,499.5,458.0,458.0,210.0,OP,1986,Coal,Coal,CT,7790,UT,40.0864,-109.2844,WECC,PACE,,,,,Bonanza,ST-Col,False,48.0,108.0,-1.0,16.03,16.03,53582.09,6412.0,1.0,2.4,458.0,214.98,2544.484,48.604,9.473,48.604,10.088,60.755,10.78,85.057,11.702,0.0,0.0,0.0,0.0,bonanza,3619.0,3619.0,bonanza,UT-7790-1,65191.0,BONANZA,Existing,PAUT,BS_PACE,7790
Lackawanna Energy Center,GEN2,499.5,454.0,489.0,454.0,OP,2018,Gas_CC,Gas,CC,60357,PA,41.471389,-75.544167,RFC,PJM,,,,,,,,,,,,,,,,,,,,,,,,,,,,,,,,,,,,,,,,,,
Lackawanna Energy Center,GEN1,499.5,454.0,489.0,454.0,OP,2018,Gas_CC,Gas,CC,60357,PA,41.471389,-75.544167,RFC,PJM,,,,,,,,,,,,,,,,,,,,,,,,,,,,,,,,,,,,,,,,,,
Lackawanna Energy Center,GEN3,499.5,454.0,489.0,454.0,OP,2018,Gas_CC,Gas,CC,60357,PA,41.471389,-75.544167,RFC,PJM,,,,,,,,,,,,,,,,,,,,,,,,,,,,,,,,,,,,,,,,,,
Huntington,2,496.0,450.0,450.0,60.0,OP,1974,Coal,Coal,CT,8069,UT,39.3792,-111.0781,WECC,PACE,,,,,Huntington_2,ST-Col,False,48.0,108.0,-1.0,15.75,15.75,52646.15,6300.0,1.0,2.4,450.0,120.0,1389.719,66.0,9.113,66.0,9.371,66.0,9.63,66.0,9.888,66.0,10.146,0.0,0.0,huntington2,3656.0,3656.0,huntington2,UT-8069-2,65800.0,HUNTN G2,Existing,PAUT,BS_PACE,8069
AES Alamitos LLC,5,495.0,485.0,485.0,70.0,OP,1964,Gas_SC,Gas,CT,315,CA,33.7688,-118.1009,WECC,CISO,,,,,,,,,,,,,,,,,,,,,,,,,,,,,,,,,,,,,,,,,,
AES Redondo Beach LLC,8,495.0,480.0,486.9,130.0,OP,1967,Gas_SC,Gas,CT,356,CA,33.8504,-118.395,WECC,CISO,,,,,RedondoBeach8,ST-NG,False,4.0,2.0,-1.0,48.345,48.345,33215.41,4312.374,1.0,0.29,486.9,129.178,1590.842,71.544,8.602,71.545,8.725,71.544,8.85,71.545,8.973,71.544,9.098,0.0,0.0,redondobeach8,939.0,939.0,redondobeach8,CA-356-8,24124.0,REDON8 G,Existing,CISC,CA_CISO,356
Wildcat Point Generation Facility,ST1,493.0,497.9,500.0,0.0,OP,2018,Gas_CC,Gas,CC,59220,MD,39.719364,-76.161625,RFC,PJM,,,,,,,,,,,,,,,,,,,,,,,,,,,,,,,,,,,,,,,,,,
Dania Beach 7,7GT2,492.2,492.2,492.2,0.0,OP,2022,Gas_CC,Gas,CT,65978,FL,26.0686,-80.1984,SERC,FPL,,,,,,,,,,,,,,,,,,,,,,,,,,,,,,,,,,,,,,,,,,
Dania Beach 7,7GT1,492.2,492.2,492.2,0.0,OP,2022,Gas_CC,Gas,CT,65978,FL,26.0686,-80.1984,SERC,FPL,,,,,,,,,,,,,,,,,,,,,,,,,,,,,,,,,,,,,,,,,,
J T Deely,1,486.0,420.0,420.0,125.0,OS,1977,Coal,Coal,CT,6181,TX,29.308056,-98.3228,TRE,ERCO,,,,,,,,,,,,,,,,,,,,,,,,,,,,,,,,,,,,,,,,,,
Big Bend,ST4,486.0,437.0,442.0,157.0,OP,1985,Coal,Coal,CT,645,FL,27.7944,-82.4036,SERC,TEC,,,,,,,,,,,,,,,,,,,,,,,,,,,,,,,,,,,,,,,,,,
Dry Fork Station,01,483.7,390.0,405.0,260.0,OP,2011,Coal,Coal,CT,56609,WY,44.388889,-105.460833,WECC,WACM,,,,,Dry Fork Station,,,48.0,108.0,-1.0,15.4,15.4,51476.24,5670.0,1.0,2.4,405.0,260.0,2811.032,29.0,10.234,43.5,10.4,,,,,,,,,,14001.0,,dryforkstation,,76404.0,DRYFORK,Existing,WACM,RM_WACM,
Blue Water Energy Center,1S,478.6,428.0,417.8,80.0,OP,2022,Gas_CC,Gas,CC,62192,MI,42.773716,-82.479331,RFC,MISO,,,,,,,,,,,,,,,,,,,,,,,,,,,,,,,,,,,,,,,,,,
Milton R Young,2,477.0,447.0,455.0,270.0,OP,1977,Coal,Coal,CT,2823,ND,47.065854,-101.213093,MRO,MISO,,,,,,,,,,,,,,,,,,,,,,,,,,,,,,,,,,,,,,,,,,
Antelope Valley,2,477.0,450.0,450.0,200.0,OP,1986,Coal,Coal,CT,6469,ND,47.370542,-101.83566,MRO,SWPP,,,,,,,,,,,,,,,,,,,,,,,,,,,,,,,,,,,,,,,,,,
Antelope Valley,1,477.0,450.0,450.0,200.0,OP,1984,Coal,Coal,CT,6469,ND,47.370542,-101.83566,MRO,SWPP,,,,,,,,,,,,,,,,,,,,,,,,,,,,,,,,,,,,,,,,,,
Allen,STG1,476.9,428.3,453.5,0.0,OP,2018,Gas_CC,Gas,CC,3393,TN,35.074087,-90.14868,SERC,TVA,,,,,,,,,,,,,,,,,,,,,,,,,,,,,,,,,,,,,,,,,,
Sabine,3,473.4,369.8,375.6,55.0,OP,1966,Gas_SC,Gas,CT,3459,TX,30.0242,-93.878,SERC,MISO,,,,,,,,,,,,,,,,,,,,,,,,,,,,,,,,,,,,,,,,,,
Northeastern,2,473.0,434.0,434.0,150.0,OP,1970,Gas_SC,Gas,CT,2963,OK,36.4317,-95.7008,MRO,SWPP,,,,,,,,,,,,,,,,,,,,,,,,,,,,,,,,,,,,,,,,,,
Northeastern,3,473.0,460.0,460.0,250.0,OP,1979,Coal,Coal,CT,2963,OK,36.4317,-95.7008,MRO,SWPP,,,,,,,,,,,,,,,,,,,,,,,,,,,,,,,,,,,,,,,,,,
Riverside (OK),2,473.0,455.0,455.0,65.0,OP,1976,Gas_SC,Gas,CT,4940,OK,35.9978,-95.9567,MRO,SWPP,,,,,,,,,,,,,,,,,,,,,,,,,,,,,,,,,,,,,,,,,,
Riverside (OK),1,473.0,454.0,454.0,126.0,OP,1974,Gas_SC,Gas,CT,4940,OK,35.9978,-95.9567,MRO,SWPP,,,,,,,,,,,,,,,,,,,,,,,,,,,,,,,,,,,,,,,,,,
Turkey Point,5CA,472.0,466.2,460.0,0.0,OP,2007,Gas_CC,Gas,CC,621,FL,25.4356,-80.3308,SERC,FPL,,,,,,,,,,,,,,,,,,,,,,,,,,,,,,,,,,,,,,,,,,
Manatee,3,471.8,439.0,437.0,133.0,OP,2005,Gas_CC,Gas,CC,6042,FL,27.6058,-82.3456,SERC,FPL,,,,,,,,,,,,,,,,,,,,,,,,,,,,,,,,,,,,,,,,,,
Martin,8,471.7,447.8,443.0,133.0,OP,2005,Gas_CC,Gas,CC,6043,FL,27.0536,-80.5628,SERC,FPL,,,,,,,,,,,,,,,,,,,,,,,,,,,,,,,,,,,,,,,,,,
Paradise,STG1,467.0,467.0,467.0,70.0,OP,2017,Gas_CC,Gas,CC,1378,KY,37.2608,-86.9783,SERC,TVA,,,,,,,,,,,,,,,,,,,,,,,,,,,,,,,,,,,,,,,,,,
Stanton Energy Center,1,464.5,453.0,453.0,90.0,OP,1987,Coal,Coal,CT,564,FL,28.4822,-81.1678,SERC,FMPP,,,,,,,,,,,,,,,,,,,,,,,,,,,,,,,,,,,,,,,,,,
Stanton Energy Center,2,464.5,469.0,469.0,95.0,OP,1996,Coal,Coal,CT,564,FL,28.4822,-81.1678,SERC,FMPP,,,,,,,,,,,,,,,,,,,,,,,,,,,,,,,,,,,,,,,,,,
Port Everglades,5ST,464.0,421.3,446.7,100.0,OP,2016,Gas_CC,Gas,CC,617,FL,26.0856,-80.1253,SERC,FPL,,,,,,,,,,,,,,,,,,,,,,,,,,,,,,,,,,,,,,,,,,
E W Brown,3,464.0,412.0,416.0,155.0,OP,1971,Coal,Coal,CT,1355,KY,37.78831,-84.71257,SERC,LGEE,,,,,,,,,,,,,,,,,,,,,,,,,,,,,,,,,,,,,,,,,,
Polk,2CC,463.0,461.0,480.0,90.0,OP,2017,Gas_CC,Gas,CC,7242,FL,27.7286,-81.9897,SERC,TEC,,,,,,,,,,,,,,,,,,,,,,,,,,,,,,,,,,,,,,,,,,
Harding Street,7,463.0,418.0,418.0,130.0,OP,1973,Gas_SC,Gas,CT,990,IN,39.711319,-86.196867,RFC,MISO,,,,,,,,,,,,,,,,,,,,,,,,,,,,,,,,,,,,,,,,,,
Mill Creek (KY),3,462.6,391.0,394.0,170.0,OP,1978,Coal,Coal,CT,1364,KY,38.0525,-85.9103,SERC,LGEE,,,,,,,,,,,,,,,,,,,,,,,,,,,,,,,,,,,,,,,,,,
Hummel Station LLC,STG,460.0,419.5,402.8,105.0,OP,2018,Gas_CC,Gas,CC,60368,PA,40.839014,-76.825517,RFC,PJM,,,,,,,,,,,,,,,,,,,,,,,,,,,,,,,,,,,,,,,,,,
Fayette Power Project,3,460.0,435.0,440.0,180.0,OP,1988,Coal,Coal,CT,6179,TX,29.9172,-96.7506,TRE,ERCO,,,,,,,,,,,,,,,,,,,,,,,,,,,,,,,,,,,,,,,,,,
New Haven Harbor,1,460.0,432.6,453.3,100.0,OP,1975,Gas_SC,Gas,CT,6156,CT,41.283997,-72.904323,NPCC,ISNE,,,,,,,,,,,,,,,,,,,,,,,,,,,,,,,,,,,,,,,,,,
Springerville,4,458.1,415.0,415.0,170.0,OP,2009,Coal,Coal,CT,8223,AZ,34.3186,-109.1639,WECC,TEPC,,,,,Springerville 4,ST-Col,False,48.0,108.0,-1.0,14.525,14.525,48551.45,5810.0,1.0,2.4,415.0,264.091,2742.582,30.182,9.309,45.272,9.332,75.455,9.369,0.0,0.0,0.0,0.0,0.0,0.0,springerville4,13402.0,13402.0,springerville4,AZ-8223-4,160921.0,SPR_GEN4,Existing,TEPC,SW_TEPC,8223
Springerville,3,458.1,417.0,417.0,132.0,OP,2006,Coal,Coal,CT,8223,AZ,34.3186,-109.1639,WECC,TEPC,,,,,Springerville 3,ST-Col,False,48.0,108.0,-1.0,14.595,14.595,48785.43,5838.0,1.0,2.4,417.0,271.753,2830.322,29.049,9.375,43.574,9.398,72.624,9.434,0.0,0.0,0.0,0.0,0.0,0.0,springerville3,13908.0,13908.0,springerville3,AZ-8223-3,160920.0,SPR_GEN3,Existing,TEPC,SW_TEPC,8223
Handley,4,455.0,435.0,435.0,120.0,OP,1976,Gas_SC,Gas,CT,3491,TX,32.7283,-97.2192,TRE,ERCO,,,,,,,,,,,,,,,,,,,,,,,,,,,,,,,,,,,,,,,,,,
Handley,5,455.0,435.0,435.0,120.0,OP,1977,Gas_SC,Gas,CT,3491,TX,32.7283,-97.2192,TRE,ERCO,,,,,,,,,,,,,,,,,,,,,,,,,,,,,,,,,,,,,,,,,,
CPV Fairview Energy Center,GEN3,453.0,387.2,398.9,115.0,OP,2019,Gas_CC,Gas,CC,60589,PA,40.412,-78.855,RFC,PJM,,,,,,,,,,,,,,,,,,,,,,,,,,,,,,,,,,,,,,,,,,
Coyote,1,450.0,427.0,427.0,200.0,OP,1981,Coal,Coal,CT,8222,ND,47.221447,-101.815722,MRO,MISO,,,,,,,,,,,,,,,,,,,,,,,,,,,,,,,,,,,,,,,,,,
Big Stone,1,450.0,475.0,475.0,150.0,OP,1975,Coal,Coal,CT,6098,SD,45.303652,-96.510067,MRO,MISO,,,,,,,,,,,,,,,,,,,,,,,,,,,,,,,,,,,,,,,,,,
Craig (CO),2,446.4,410.0,410.0,130.0,OP,1979,Coal,Coal,CT,6021,CO,40.4627,-107.5912,WECC,WACM,,,,,,,,,,,,,,,,,,,,,,,,,,,,,,,,,,,,,,,,,,
Craig (CO),1,446.4,427.0,427.0,130.0,OP,1980,Coal,Coal,CT,6021,CO,40.4627,-107.5912,WECC,WACM,,,,,,,,,,,,,,,,,,,,,,,,,,,,,,,,,,,,,,,,,,
O W Sommers,2,446.0,410.0,410.0,70.0,OP,1974,Gas_SC,Gas,CT,3611,TX,29.308056,-98.3242,TRE,ERCO,,,,,,,,,,,,,,,,,,,,,,,,,,,,,,,,,,,,,,,,,,
Hugo,1,446.0,440.0,440.0,180.0,OP,1982,Coal,Coal,CT,6772,OK,34.0158,-95.3206,MRO,SWPP,,,,,,,,,,,,,,,,,,,,,,,,,,,,,,,,,,,,,,,,,,
O W Sommers,1,446.0,420.0,420.0,70.0,OP,1972,Gas_SC,Gas,CT,3611,TX,29.308056,-98.3242,TRE,ERCO,,,,,,,,,,,,,,,,,,,,,,,,,,,,,,,,,,,,,,,,,,
J T Deely,2,446.0,420.0,420.0,125.0,OS,1978,Coal,Coal,CT,6181,TX,29.308056,-98.3228,TRE,ERCO,,,,,,,,,,,,,,,,,,,,,,,,,,,,,,,,,,,,,,,,,,
Edge Moor,5,446.0,450.0,450.0,65.0,OP,1973,Gas_SC,Gas,CT,593,DE,39.73886,-75.50384,RFC,PJM,,,,,,,,,,,,,,,,,,,,,,,,,,,,,,,,,,,,,,,,,,
H L Culbreath Bayside Power Station,2ST,445.7,305.0,315.0,52.0,OP,1967,Gas_CC,Gas,CC,7873,FL,27.9072,-82.4231,SERC,TEC,,,,,,,,,,,,,,,,,,,,,,,,,,,,,,,,,,,,,,,,,,
Waterford 1 & 2,2,445.5,417.0,417.2,125.0,OP,1975,Gas_SC,Gas,CT,8056,LA,29.998884,-90.47684,SERC,MISO,,,,,,,,,,,,,,,,,,,,,,,,,,,,,,,,,,,,,,,,,,
Indian River Generating Station,4,445.5,410.0,410.0,190.0,OP,1980,Coal,Coal,CT,594,DE,38.5857,-75.2341,RFC,PJM,,,,,,,,,,,,,,,,,,,,,,,,,,,,,,,,,,,,,,,,,,
Brame Energy Center,1,445.5,421.6,0.0,55.0,OP,1975,Gas_SC,Gas,CT,6190,LA,31.395,-92.716667,SERC,MISO,,,,,,,,,,,,,,,,,,,,,,,,,,,,,,,,,,,,,,,,,,
Big Bend,ST1,445.5,335.0,340.0,185.0,OP,1970,Gas_CC,Gas,CC,645,FL,27.7944,-82.4036,SERC,TEC,,,,,,,,,,,,,,,,,,,,,,,,,,,,,,,,,,,,,,,,,,
Big Bend,ST3,445.5,395.0,400.0,185.0,OP,1976,Gas_SC,Gas,CT,645,FL,27.7944,-82.4036,SERC,TEC,,,,,,,,,,,,,,,,,,,,,,,,,,,,,,,,,,,,,,,,,,
Waterford 1 & 2,1,445.5,409.5,411.1,125.0,OP,1975,Gas_SC,Gas,CT,8056,LA,29.998884,-90.47684,SERC,MISO,,,,,,,,,,,,,,,,,,,,,,,,,,,,,,,,,,,,,,,,,,
Jasper,ST1,443.7,390.0,402.0,55.0,OP,2004,Gas_CC,Gas,CC,55927,SC,32.3594,-81.1242,SERC,SCEG,,,,,,,,,,,,,,,,,,,,,,,,,,,,,,,,,,,,,,,,,,
Hickory Run Energy Station,STG1,443.7,425.3,436.3,195.0,OP,2020,Gas_CC,Gas,CC,61028,PA,40.994444,-80.43,RFC,PJM,,,,,,,,,,,,,,,,,,,,,,,,,,,,,,,,,,,,,,,,,,
Horseshoe Lake,8,443.0,377.0,377.0,80.0,OP,1969,Gas_SC,Gas,CT,2951,OK,35.50866,-97.17969,MRO,SWPP,,,,,,,,,,,,,,,,,,,,,,,,,,,,,,,,,,,,,,,,,,
Leland Olds,2,440.0,445.0,445.0,220.0,OP,1975,Coal,Coal,CT,2817,ND,47.280769,-101.321213,MRO,SWPP,,,,,,,,,,,,,,,,,,,,,,,,,,,,,,,,,,,,,,,,,,
Sanford,5,436.1,388.0,360.0,132.6,OP,1974,Gas_CC,Gas,CC,620,FL,28.8419,-81.3256,SERC,FPL,,,,,,,,,,,,,,,,,,,,,,,,,,,,,,,,,,,,,,,,,,
Sanford,4,436.1,388.0,360.0,132.6,OP,1969,Gas_CC,Gas,CC,620,FL,28.8419,-81.3256,SERC,FPL,,,,,,,,,,,,,,,,,,,,,,,,,,,,,,,,,,,,,,,,,,
Fort Myers,ST2,436.1,459.2,404.0,146.6,OP,1969,Gas_CC,Gas,CC,612,FL,26.6967,-81.7831,SERC,FPL,,,,,,,,,,,,,,,,,,,,,,,,,,,,,,,,,,,,,,,,,,
Hamilton Liberty,GEN1,435.0,382.5,425.0,240.0,OP,2016,Gas_CC,Gas,CC,58420,PA,41.7675,-76.39,RFC,PJM,,,,,,,,,,,,,,,,,,,,,,,,,,,,,,,,,,,,,,,,,,
Hamilton Patriot Generation Plant,GEN1,435.0,412.5,455.0,250.0,OP,2016,Gas_CC,Gas,CC,58426,PA,41.180833,-76.839167,RFC,PJM,,,,,,,,,,,,,,,,,,,,,,,,,,,,,,,,,,,,,,,,,,
Hamilton Liberty,GEN2,435.0,382.5,425.0,240.0,OP,2016,Gas_CC,Gas,CC,58420,PA,41.7675,-76.39,RFC,PJM,,,,,,,,,,,,,,,,,,,,,,,,,,,,,,,,,,,,,,,,,,
Hamilton Patriot Generation Plant,GEN2,435.0,382.5,425.0,250.0,OP,2016,Gas_CC,Gas,CC,58426,PA,41.180833,-76.839167,RFC,PJM,,,,,,,,,,,,,,,,,,,,,,,,,,,,,,,,,,,,,,,,,,
Springerville,2,424.8,406.0,406.0,124.0,OP,1990,Coal,Coal,CT,8223,AZ,34.3186,-109.1639,WECC,TEPC,,,,,Springerville 2,ST-Col,False,48.0,108.0,-1.0,14.21,14.21,47498.53,5684.0,1.0,2.4,406.0,255.0,2309.168,30.2,8.541,45.3,8.685,75.5,8.916,0.0,0.0,0.0,0.0,0.0,0.0,springerville2,13390.0,13390.0,springerville2,AZ-8223-2,160919.0,SPR_GEN2,Existing,TEPC,SW_TEPC,8223
Springerville,1,424.8,381.0,381.0,123.0,OP,1985,Coal,Coal,CT,8223,AZ,34.3186,-109.1639,WECC,TEPC,,,,,Springerville 1,ST-Col,False,48.0,108.0,-1.0,13.545,13.545,45275.69,5418.0,1.0,2.4,387.0,210.0,1976.503,35.4,8.657,53.1,8.839,88.5,9.131,0.0,0.0,0.0,0.0,0.0,0.0,springerville1,13389.0,13389.0,springerville1,AZ-8223-1,160918.0,SPR_GEN1,Existing,TEPC,SW_TEPC,8223
Clover,1,424.0,440.0,443.0,130.0,OP,1995,Coal,Coal,CT,7213,VA,36.869,-78.704,SERC,PJM,,,,,,,,,,,,,,,,,,,,,,,,,,,,,,,,,,,,,,,,,,
Clover,2,424.0,437.0,438.0,130.0,OP,1996,Coal,Coal,CT,7213,VA,36.869,-78.704,SERC,PJM,,,,,,,,,,,,,,,,,,,,,,,,,,,,,,,,,,,,,,,,,,
R M Schahfer,17,423.5,361.0,361.0,110.0,OP,1983,Coal,Coal,CT,6085,IN,41.2164,-87.0261,RFC,MISO,,,,,,,,,,,,,,,,,,,,,,,,,,,,,,,,,,,,,,,,,,
R M Schahfer,18,423.5,361.0,361.0,110.0,OP,1986,Coal,Coal,CT,6085,IN,41.2164,-87.0261,RFC,MISO,,,,,,,,,,,,,,,,,,,,,,,,,,,,,,,,,,,,,,,,,,
John Sevier,STG1,423.0,383.0,376.0,90.2,OP,2012,Gas_CC,Gas,CC,3405,TN,36.3767,-82.9639,SERC,TVA,,,,,,,,,,,,,,,,,,,,,,,,,,,,,,,,,,,,,,,,,,
P L Bartow,4ST,421.2,402.0,429.0,402.0,OP,2009,Gas_CC,Gas,CC,634,FL,27.859535,-82.601759,SERC,FPC,,,,,,,,,,,,,,,,,,,,,,,,,,,,,,,,,,,,,,,,,,
Little Gypsy,2,420.7,365.9,373.9,24.0,OP,1966,Gas_SC,Gas,CT,1402,LA,30.005067,-90.461694,SERC,MISO,,,,,,,,,,,,,,,,,,,,,,,,,,,,,,,,,,,,,,,,,,
York Energy Center,STG2,419.6,395.1,396.9,0.0,OP,2019,Gas_CC,Gas,CC,55524,PA,39.7375,-76.306666,RFC,PJM,,,,,,,,,,,,,,,,,,,,,,,,,,,,,,,,,,,,,,,,,,
Cope,ST1,417.3,415.0,415.0,110.0,OP,1996,Gas_SC,Gas,CT,7210,SC,33.3644,-81.03,SERC,SCEG,,,,,,,,,,,,,,,,,,,,,,,,,,,,,,,,,,,,,,,,,,
V H Braunig,3,417.0,412.0,412.0,70.0,OP,1970,Gas_SC,Gas,CT,3612,TX,29.2567,-98.3825,TRE,ERCO,,,,,,,,,,,,,,,,,,,,,,,,,,,,,,,,,,,,,,,,,,
Montville Station,6,414.9,410.0,410.0,125.0,OP,1971,Oil,Oil,CT,546,CT,41.4281,-72.1019,NPCC,ISNE,,,,,,,,,,,,,,,,,,,,,,,,,,,,,,,,,,,,,,,,,,
Middletown,4,414.9,400.0,402.0,125.0,OP,1973,Oil,Oil,CT,562,CT,41.554944,-72.579075,NPCC,ISNE,,,,,,,,,,,,,,,,,,,,,,,,,,,,,,,,,,,,,,,,,,
Herbert A Wagner,4,414.7,397.0,397.0,60.0,OP,1972,Oil,Oil,CT,1554,MD,39.1781,-76.5268,RFC,PJM,,,,,,,,,,,,,,,,,,,,,,,,,,,,,,,,,,,,,,,,,,
Newington,1,414.0,400.2,400.2,60.0,OP,1974,Oil,Oil,CT,8002,NH,43.1,-70.790833,NPCC,ISNE,,,,,,,,,,,,,,,,,,,,,,,,,,,,,,,,,,,,,,,,,,
Edgewater,5,413.7,409.1,409.3,85.0,OP,1985,Coal,Coal,CT,4050,WI,43.715142,-87.705863,MRO,MISO,,,,,,,,,,,,,,,,,,,,,,,,,,,,,,,,,,,,,,,,,,
Coronado,CO2,410.9,382.0,382.0,170.0,OP,1980,Coal,Coal,CT,6177,AZ,34.5789,-109.2708,WECC,SRP,,,,,Coronado CO2,ST-Col,False,48.0,108.0,-1.0,13.37,13.37,44690.73,5348.0,1.0,2.4,382.0,170.0,2077.789,42.4,10.831,42.4,11.056,53.0,11.309,74.2,11.647,0.0,0.0,0.0,0.0,coronadoco2,13385.0,13385.0,coronadoco2,AZ-6177-CO2,15972.0,CORONAD2,Existing,SRP,SW_SRP,6177
Coronado,CO1,410.9,380.0,380.0,50.0,OP,1979,Coal,Coal,CT,6177,AZ,34.5789,-109.2708,WECC,SRP,,,,,Coronado CO1,ST-Col,False,48.0,108.0,-1.0,13.3,13.3,44456.75,5320.0,1.0,2.4,380.0,138.182,1857.493,48.363,10.931,48.364,11.161,60.455,11.421,84.636,11.767,0.0,0.0,0.0,0.0,coronadoco1,13384.0,13384.0,coronadoco1,AZ-6177-CO1,15971.0,CORONAD1,Existing,SRP,SW_SRP,6177
Roxboro,1,410.8,379.0,380.0,70.0,OP,1966,Coal,Coal,CT,2712,NC,36.4833,-79.0731,SERC,CPLE,,,,,,,,,,,,,,,,,,,,,,,,,,,,,,,,,,,,,,,,,,
San Miguel,1,410.0,391.0,391.0,250.0,OP,1982,Coal,Coal,CT,6183,TX,28.7044,-98.4775,TRE,ERCO,,,,,,,,,,,,,,,,,,,,,,,,,,,,,,,,,,,,,,,,,,
Midland Cogeneration Venture,ST1,410.0,410.0,410.0,25.0,OP,1990,Gas_CC,Gas,CC,10745,MI,43.5861,-84.2242,RFC,MISO,,,,,,,,,,,,,,,,,,,,,,,,,,,,,,,,,,,,,,,,,,
Brunner Island,2,405.0,363.0,363.0,126.0,OP,1965,Gas_SC,Gas,CT,3140,PA,40.096111,-76.6962,RFC,PJM,,,,,,,,,,,,,,,,,,,,,,,,,,,,,,,,,,,,,,,,,,
Lee Combined Cycle Plant,ST1,405.0,378.0,379.0,378.0,OP,2012,Gas_CC,Gas,CC,58215,NC,35.373611,-78.089444,SERC,DUK,,,,,,,,,,,,,,,,,,,,,,,,,,,,,,,,,,,,,,,,,,
Handley,3,404.8,395.0,395.0,50.0,OP,1963,Gas_SC,Gas,CT,3491,TX,32.7283,-97.2192,TRE,ERCO,,,,,,,,,,,,,,,,,,,,,,,,,,,,,,,,,,,,,,,,,,
Oregon Clean Energy Center,STG10,404.0,334.6,336.2,0.0,OP,2017,Gas_CC,Gas,CC,59764,OH,41.667928,-83.443664,RFC,PJM,,,,,,,,,,,,,,,,,,,,,,,,,,,,,,,,,,,,,,,,,,
Yates,6,403.7,355.5,355.5,60.0,OP,1974,Gas_SC,Gas,CT,728,GA,33.4622,-84.8986,SERC,SOCO,,,,,,,,,,,,,,,,,,,,,,,,,,,,,,,,,,,,,,,,,,
Yates,7,403.7,358.5,358.5,60.0,OP,1974,Gas_SC,Gas,CT,728,GA,33.4622,-84.8986,SERC,SOCO,,,,,,,,,,,,,,,,,,,,,,,,,,,,,,,,,,,,,,,,,,
Barry,4,403.7,362.0,362.0,200.0,OP,1969,Coal,Coal,CT,3,AL,31.0069,-88.0103,SERC,SOCO,,,,,,,,,,,,,,,,,,,,,,,,,,,,,,,,,,,,,,,,,,
Lawrence Energy Center,5,403.0,374.0,374.0,120.0,OP,1971,Coal,Coal,CT,1250,KS,39.0072,-95.269167,MRO,SWPP,,,,,,,,,,,,,,,,,,,,,,,,,,,,,,,,,,,,,,,,,,
Wyodak,1,402.3,332.0,335.0,130.0,OP,1978,Coal,Coal,CT,6101,WY,44.290128,-105.381482,WECC,PACE,,,,,Wyodak,ST-Col,False,48.0,108.0,-1.0,11.9,11.9,39777.09,4760.0,1.0,2.4,340.0,58.594,930.2446,56.281,10.907,56.281,11.261,70.352,11.66,98.492,12.192,0.0,0.0,0.0,0.0,wyodak,3698.0,3698.0,wyodak,WY-6101-1,66730.0,WYODAK 1,Existing,PAWY,BS_PACE,6101
Indeck Niles Energy Center,ST1,400.8,364.7,346.3,106.0,OP,2022,Gas_CC,Gas,CC,55460,MI,41.862114,-86.221394,RFC,PJM,,,,,,,,,,,,,,,,,,,,,,,,,,,,,,,,,,,,,,,,,,
Ravenswood,2,400.0,373.0,374.3,75.0,OP,1963,Gas_SC,Gas,CT,2500,NY,40.759167,-73.946111,NPCC,NYIS,,,,,,,,,,,,,,,,,,,,,,,,,,,,,,,,,,,,,,,,,,
Dave Johnston,4,400.0,330.0,330.0,125.0,OP,1972,Coal,Coal,CT,4158,WY,42.8378,-105.7769,WECC,PACE,,,,,Dave_Johnston_4,ST-Col,False,6.0,12.0,-1.0,6.6,6.6,48926.96,4620.0,1.0,1.79,330.0,180.0,2024.69,30.0,10.355,45.0,10.572,75.0,10.919,0.0,0.0,0.0,0.0,0.0,0.0,davejohnston4,3635.0,3635.0,davejohnston4,WY-4158-4,65445.0,DAVEJON4,Existing,PAWY,BS_PACE,4158
Ravenswood,1,400.0,368.5,375.8,75.0,OP,1963,Gas_SC,Gas,CT,2500,NY,40.759167,-73.946111,NPCC,NYIS,,,,,,,,,,,,,,,,,,,,,,,,,,,,,,,,,,,,,,,,,,
"Waterford Power, LLC",ST1,399.0,362.0,390.0,94.0,OP,2003,Gas_CC,Gas,CC,55503,OH,39.5333,-81.7178,RFC,PJM,,,,,,,,,,,,,,,,,,,,,,,,,,,,,,,,,,,,,,,,,,
Big Bend,GT6,397.8,360.0,390.0,120.0,OP,2021,Gas_CC,Gas,CT,645,FL,27.7944,-82.4036,SERC,TEC,,,,,,,,,,,,,,,,,,,,,,,,,,,,,,,,,,,,,,,,,,
Big Bend,GT5,397.8,360.0,390.0,120.0,OP,2021,Gas_CC,Gas,CT,645,FL,27.7944,-82.4036,SERC,TEC,,,,,,,,,,,,,,,,,,,,,,,,,,,,,,,,,,,,,,,,,,
Lake Hubbard,1,396.5,392.0,392.0,56.0,OP,1970,Gas_SC,Gas,CT,3452,TX,32.8358,-96.5458,TRE,ERCO,,,,,,,,,,,,,,,,,,,,,,,,,,,,,,,,,,,,,,,,,,
Comanche (CO),2,396.0,335.0,335.0,170.0,OP,1975,Coal,Coal,CT,470,CO,38.2081,-104.5747,WECC,WACM,,,,,Comanche 3,,,48.0,108.0,-1.0,26.81,26.81,98515.81,15396.6,1.0,3.76,766.0,466.261,4548.511,59.948,7.967,59.948,8.472,,,,,,,,,,13888.0,,comanche3,,70777.0,COMAN_3,Existing,PSCO,RM_PSCO,
Blue Water Energy Center,12,394.4,359.0,375.6,150.0,OP,2022,Gas_CC,Gas,CT,62192,MI,42.773716,-82.479331,RFC,MISO,,,,,,,,,,,,,,,,,,,,,,,,,,,,,,,,,,,,,,,,,,
Blue Water Energy Center,11,394.4,359.0,375.6,150.0,OP,2022,Gas_CC,Gas,CT,62192,MI,42.773716,-82.479331,RFC,MISO,,,,,,,,,,,,,,,,,,,,,,,,,,,,,,,,,,,,,,,,,,
Tenaska Westmoreland Generating Station,STG1,394.0,371.0,375.0,90.0,OP,2018,Gas_CC,Gas,CC,60464,PA,40.175249,-79.696665,RFC,PJM,,,,,,,,,,,,,,,,,,,,,,,,,,,,,,,,,,,,,,,,,,
Dania Beach 7,ST7,391.8,391.8,391.8,0.0,OP,2022,Gas_CC,Gas,CC,65978,FL,26.0686,-80.1984,SERC,FPL,,,,,,,,,,,,,,,,,,,,,,,,,,,,,,,,,,,,,,,,,,
Eddystone Generating Station,3,391.0,380.0,380.0,50.0,OP,1974,Gas_SC,Gas,CT,3161,PA,39.858,-75.323,RFC,PJM,,,,,,,,,,,,,,,,,,,,,,,,,,,,,,,,,,,,,,,,,,
Eddystone Generating Station,4,391.0,380.0,380.0,50.0,OP,1976,Gas_SC,Gas,CT,3161,PA,39.858,-75.323,RFC,PJM,,,,,,,,,,,,,,,,,,,,,,,,,,,,,,,,,,,,,,,,,,
Tenaska Virginia Generating Station,STG1,390.4,402.2,400.4,50.0,OP,2004,Gas_CC,Gas,CC,55439,VA,37.8667,-78.3813,SERC,PJM,,,,,,,,,,,,,,,,,,,,,,,,,,,,,,,,,,,,,,,,,,
Central Alabama Generating Station,ST1,390.1,399.4,401.0,60.0,OP,2003,Gas_CC,Gas,CC,55440,AL,32.6497,-86.74,SERC,SOCO,,,,,,,,,,,,,,,,,,,,,,,,,,,,,,,,,,,,,,,,,,
Tenaska Lindsay Hill Generating Station,STG1,390.1,392.0,394.0,35.0,OP,2002,Gas_CC,Gas,CC,55271,AL,32.6514,-86.7386,SERC,SOCO,,,,,,,,,,,,,,,,,,,,,,,,,,,,,,,,,,,,,,,,,,
Tenaska Frontier Generation Station,STG1,390.1,395.0,395.0,60.0,OP,2000,Gas_CC,Gas,CC,55062,TX,30.5924,-95.9178,SERC,ERCO,,,,,,,,,,,,,,,,,,,,,,,,,,,,,,,,,,,,,,,,,,
Tenaska Gateway Generating Station,STG1,390.0,405.0,405.0,190.0,OP,2001,Gas_CC,Gas,CC,55132,TX,32.017826,-94.619743,TRE,ERCO,,,,,,,,,,,,,,,,,,,,,,,,,,,,,,,,,,,,,,,,,,
Northport,3,387.0,398.5,394.2,30.0,OP,1972,Gas_SC,Gas,CT,2516,NY,40.923565,-73.342323,NPCC,NYIS,,,,,,,,,,,,,,,,,,,,,,,,,,,,,,,,,,,,,,,,,,
Graham,2,387.0,390.0,390.0,26.0,OP,1969,Gas_SC,Gas,CT,3490,TX,33.1344,-98.6117,TRE,ERCO,,,,,,,,,,,,,,,,,,,,,,,,,,,,,,,,,,,,,,,,,,
Northport,2,387.0,398.0,399.0,40.0,OP,1968,Gas_SC,Gas,CT,2516,NY,40.923565,-73.342323,NPCC,NYIS,,,,,,,,,,,,,,,,,,,,,,,,,,,,,,,,,,,,,,,,,,
Astoria Generating Station,ST5,387.0,376.3,376.3,75.0,OP,1962,Gas_SC,Gas,CT,8906,NY,40.787674,-73.912561,NPCC,NYIS,,,,,,,,,,,,,,,,,,,,,,,,,,,,,,,,,,,,,,,,,,
Northport,4,387.0,398.0,396.5,40.0,OP,1977,Gas_SC,Gas,CT,2516,NY,40.923565,-73.342323,NPCC,NYIS,,,,,,,,,,,,,,,,,,,,,,,,,,,,,,,,,,,,,,,,,,
Northport,ST1,387.0,397.7,396.2,40.0,OP,1967,Gas_SC,Gas,CT,2516,NY,40.923565,-73.342323,NPCC,NYIS,,,,,,,,,,,,,,,,,,,,,,,,,,,,,,,,,,,,,,,,,,
Astoria Generating Station,4,387.0,376.3,376.3,75.0,OS,1961,Gas_SC,Gas,CT,8906,NY,40.787674,-73.912561,NPCC,NYIS,,,,,,,,,,,,,,,,,,,,,,,,,,,,,,,,,,,,,,,,,,
John P Madgett,1,387.0,389.8,392.5,125.0,OP,1979,Coal,Coal,CT,4271,WI,44.303583,-91.912647,MRO,MISO,,,,,,,,,,,,,,,,,,,,,,,,,,,,,,,,,,,,,,,,,,
Indeck Niles Energy Center,CT1,386.8,358.4,375.4,110.0,OP,2022,Gas_CC,Gas,CT,55460,MI,41.862114,-86.221394,RFC,PJM,,,,,,,,,,,,,,,,,,,,,,,,,,,,,,,,,,,,,,,,,,
Indeck Niles Energy Center,CT2,386.8,358.4,375.4,110.0,OP,2022,Gas_CC,Gas,CT,55460,MI,41.862114,-86.221394,RFC,PJM,,,,,,,,,,,,,,,,,,,,,,,,,,,,,,,,,,,,,,,,,,
Wateree,1,385.9,342.0,342.0,220.0,OP,1970,Coal,Coal,CT,3297,SC,33.8264,-80.6228,SERC,SCEG,,,,,,,,,,,,,,,,,,,,,,,,,,,,,,,,,,,,,,,,,,
Wateree,2,385.9,342.0,342.0,220.0,OP,1971,Coal,Coal,CT,3297,SC,33.8264,-80.6228,SERC,SCEG,,,,,,,,,,,,,,,,,,,,,,,,,,,,,,,,,,,,,,,,,,
Naughton,3,384.0,247.0,247.0,50.0,OP,1971,Gas_SC,Gas,CT,4162,WY,41.7581,-110.5983,WECC,PACE,,,,,Naughton2,,,48.0,108.0,-1.0,6.2475000000000005,6.2475000000000005,20882.975,1665.405,1.0,2.4,178.5,44.6285,593.698,26.7745,9.837,40.161500000000004,10.463000000000001,,,,,,,,,,11093.0,,naughton2,,66060.0,NAUGT G2,Existing,PAWY,BS_PACE,
Forney Energy Center,ST1,382.5,406.0,418.0,88.0,OP,2003,Gas_CC,Gas,CC,55480,TX,32.7563,-96.4916,TRE,ERCO,,,,,,,,,,,,,,,,,,,,,,,,,,,,,,,,,,,,,,,,,,
Forney Energy Center,ST2,382.5,406.0,418.0,88.0,OP,2003,Gas_CC,Gas,CC,55480,TX,32.7563,-96.4916,TRE,ERCO,,,,,,,,,,,,,,,,,,,,,,,,,,,,,,,,,,,,,,,,,,
Cherokee,4,380.8,310.0,310.0,220.0,OP,1968,Gas_SC,Gas,CT,469,CO,39.807275,-104.964548,WECC,PSCO,,,,,Cherokee 4 Coal,ST-Col,False,48.0,108.0,-1.0,13.405,13.405,44807.73,5331.2,1.0,2.4,383.0,215.0,1723.071,56.0,9.636,56.0,9.887,56.0,10.209,0.0,0.0,0.0,0.0,0.0,0.0,cherokee4coal,14129.0,14129.0,cherokee4coal,CO-469-4,70106.0,CHEROK4,Existing,PSCO,RM_PSCO,469
Midland Cogeneration Venture,ST2,380.0,380.0,380.0,40.0,SB,1990,Gas_CC,Gas,CC,10745,MI,43.5861,-84.2242,RFC,MISO,,,,,,,,,,,,,,,,,,,,,,,,,,,,,,,,,,,,,,,,,,
J H Campbell,2,378.8,355.5,359.9,100.0,OP,1967,Coal,Coal,CT,1710,MI,42.910296,-86.20074,RFC,MISO,,,,,,,,,,,,,,,,,,,,,,,,,,,,,,,,,,,,,,,,,,
Okeechobee Clean Energy Center,1A,376.6,376.6,376.6,0.0,OP,2019,Gas_CC,Gas,CT,60345,FL,27.634167,-80.791111,SERC,FPL,,,,,,,,,,,,,,,,,,,,,,,,,,,,,,,,,,,,,,,,,,
Okeechobee Clean Energy Center,1C,376.6,376.6,376.6,0.0,OP,2019,Gas_CC,Gas,CT,60345,FL,27.634167,-80.791111,SERC,FPL,,,,,,,,,,,,,,,,,,,,,,,,,,,,,,,,,,,,,,,,,,
Okeechobee Clean Energy Center,1B,376.6,376.6,376.6,0.0,OP,2019,Gas_CC,Gas,CT,60345,FL,27.634167,-80.791111,SERC,FPL,,,,,,,,,,,,,,,,,,,,,,,,,,,,,,,,,,,,,,,,,,
Astoria Generating Station,3,376.0,369.9,369.9,75.0,OP,1958,Gas_SC,Gas,CT,8906,NY,40.787674,-73.912561,NPCC,NYIS,,,,,,,,,,,,,,,,,,,,,,,,,,,,,,,,,,,,,,,,,,
Bridgeport Station,501,375.7,342.0,364.0,155.0,OP,2019,Gas_CC,Gas,CT,568,CT,41.1706,-73.1844,NPCC,ISNE,,,,,,,,,,,,,,,,,,,,,,,,,,,,,,,,,,,,,,,,,,
Rio Nogales Power Project,STG1,373.2,303.0,319.0,50.0,OP,2002,Gas_CC,Gas,CC,55137,TX,29.593056,-97.973215,TRE,ERCO,,,,,,,,,,,,,,,,,,,,,,,,,,,,,,,,,,,,,,,,,,
CPV Fairview Energy Center,GEN2,372.0,342.9,346.6,115.0,OP,2019,Gas_CC,Gas,CT,60589,PA,40.412,-78.855,RFC,PJM,,,,,,,,,,,,,,,,,,,,,,,,,,,,,,,,,,,,,,,,,,
CPV Fairview Energy Center,GEN1,372.0,341.8,348.7,115.0,OP,2019,Gas_CC,Gas,CT,60589,PA,40.412,-78.855,RFC,PJM,,,,,,,,,,,,,,,,,,,,,,,,,,,,,,,,,,,,,,,,,,
Tenaska Westmoreland Generating Station,CTG1,370.0,288.0,328.5,160.0,OP,2018,Gas_CC,Gas,CT,60464,PA,40.175249,-79.696665,RFC,PJM,,,,,,,,,,,,,,,,,,,,,,,,,,,,,,,,,,,,,,,,,,
Tenaska Westmoreland Generating Station,CTG2,370.0,288.0,328.5,160.0,OP,2018,Gas_CC,Gas,CT,60464,PA,40.175249,-79.696665,RFC,PJM,,,,,,,,,,,,,,,,,,,,,,,,,,,,,,,,,,,,,,,,,,
Greensville County Power Station,CT01,369.8,324.4,353.8,0.0,OP,2018,Gas_CC,Gas,CT,59913,VA,36.718236,-77.649559,SERC,PJM,,,,,,,,,,,,,,,,,,,,,,,,,,,,,,,,,,,,,,,,,,
Greensville County Power Station,CT03,369.8,324.4,353.8,0.0,OP,2018,Gas_CC,Gas,CT,59913,VA,36.718236,-77.649559,SERC,PJM,,,,,,,,,,,,,,,,,,,,,,,,,,,,,,,,,,,,,,,,,,
Greensville County Power Station,CT02,369.8,324.4,353.8,0.0,OP,2018,Gas_CC,Gas,CT,59913,VA,36.718236,-77.649559,SERC,PJM,,,,,,,,,,,,,,,,,,,,,,,,,,,,,,,,,,,,,,,,,,
Gulf Clean Energy Center,6,369.7,299.0,299.0,220.0,OP,1970,Gas_SC,Gas,CT,641,FL,30.5661,-87.2244,SERC,SOCO,,,,,,,,,,,,,,,,,,,,,,,,,,,,,,,,,,,,,,,,,,
Jack McDonough,5,369.0,360.0,360.0,209.0,OP,2012,Gas_CC,Gas,CC,710,GA,33.8239,-84.4758,SERC,SOCO,,,,,,,,,,,,,,,,,,,,,,,,,,,,,,,,,,,,,,,,,,
Jack McDonough,6,369.0,345.0,345.0,209.0,OP,2012,Gas_CC,Gas,CC,710,GA,33.8239,-84.4758,SERC,SOCO,,,,,,,,,,,,,,,,,,,,,,,,,,,,,,,,,,,,,,,,,,
GREC,3CT,369.0,310.3,327.3,160.0,OP,2017,Gas_CC,Gas,CT,165,OK,36.190278,-95.2894,MRO,SWPP,,,,,,,,,,,,,,,,,,,,,,,,,,,,,,,,,,,,,,,,,,
Ratcliffe,1C,369.0,0.0,0.0,89.1,OP,2014,Gas_CC,Gas,CC,57037,MS,32.654722,-88.762222,SERC,SOCO,,,,,,,,,,,,,,,,,,,,,,,,,,,,,,,,,,,,,,,,,,
Jack McDonough,4,369.0,360.0,360.0,209.0,OP,2011,Gas_CC,Gas,CC,710,GA,33.8239,-84.4758,SERC,SOCO,,,,,,,,,,,,,,,,,,,,,,,,,,,,,,,,,,,,,,,,,,
PSEG Sewaren Generating Station,701,365.5,338.0,338.0,150.0,OP,2018,Gas_CC,Gas,CT,2411,NJ,40.5558,-74.2469,RFC,PJM,,,,,,,,,,,,,,,,,,,,,,,,,,,,,,,,,,,,,,,,,,
Crystal River,CC1ST,364.7,322.0,335.0,322.0,OP,2018,Gas_CC,Gas,CC,628,FL,28.9656,-82.6977,SERC,FPC,,,,,,,,,,,,,,,,,,,,,,,,,,,,,,,,,,,,,,,,,,
Crystal River,CC2ST,364.7,320.0,336.0,320.0,OP,2018,Gas_CC,Gas,CC,628,FL,28.9656,-82.6977,SERC,FPC,,,,,,,,,,,,,,,,,,,,,,,,,,,,,,,,,,,,,,,,,,
Clay Boswell,3,364.5,352.0,352.0,75.0,OP,1973,Coal,Coal,CT,1893,MN,47.2611,-93.6528,MRO,MISO,,,,,,,,,,,,,,,,,,,,,,,,,,,,,,,,,,,,,,,,,,
Brunner Island,1,363.3,306.0,306.0,122.0,OP,1961,Gas_SC,Gas,CT,3140,PA,40.096111,-76.6962,RFC,PJM,,,,,,,,,,,,,,,,,,,,,,,,,,,,,,,,,,,,,,,,,,
W S Lee,ST10,362.1,313.0,313.0,313.0,OP,2018,Gas_CC,Gas,CC,3264,SC,34.6022,-82.435,SERC,DUK,,,,,,,,,,,,,,,,,,,,,,,,,,,,,,,,,,,,,,,,,,
Choctaw County,STG1,362.0,289.0,326.0,140.0,OP,2003,Gas_CC,Gas,CC,55706,MS,33.2881,-89.4201,SERC,TVA,,,,,,,,,,,,,,,,,,,,,,,,,,,,,,,,,,,,,,,,,,
Carroll County Energy,SGT1,361.3,288.0,303.8,0.0,OP,2017,Gas_CC,Gas,CC,59773,OH,40.60441,-81.05918,RFC,PJM,,,,,,,,,,,,,,,,,,,,,,,,,,,,,,,,,,,,,,,,,,
Hunterstown Power Plant,401,361.0,315.0,315.0,194.0,OP,2003,Gas_CC,Gas,CC,55976,PA,39.8725,-77.1672,RFC,PJM,,,,,,,,,,,,,,,,,,,,,,,,,,,,,,,,,,,,,,,,,,
Colorado Bend II,CT8,360.9,335.0,359.6,113.0,OP,2017,Gas_CC,Gas,CT,60122,TX,29.289415,-96.065399,TRE,ERCO,,,,,,,,,,,,,,,,,,,,,,,,,,,,,,,,,,,,,,,,,,
Colorado Bend II,CT7,360.9,329.3,360.2,113.0,OP,2017,Gas_CC,Gas,CT,60122,TX,29.289415,-96.065399,TRE,ERCO,,,,,,,,,,,,,,,,,,,,,,,,,,,,,,,,,,,,,,,,,,
Joliet 9,6,360.4,314.0,314.0,95.0,OP,1959,Gas_SC,Gas,CT,874,IL,41.4931,-88.1153,RFC,PJM,,,,,,,,,,,,,,,,,,,,,,,,,,,,,,,,,,,,,,,,,,
Harrington,2,360.0,339.0,339.0,120.0,OP,1978,Coal,Coal,CT,6193,TX,35.29816,-101.747187,MRO,SWPP,,,,,,,,,,,,,,,,,,,,,,,,,,,,,,,,,,,,,,,,,,
Wolf Hollow II,CGT4,360.0,327.8,353.3,113.0,OP,2017,Gas_CC,Gas,CT,59812,TX,32.337679,-97.734612,TRE,ERCO,,,,,,,,,,,,,,,,,,,,,,,,,,,,,,,,,,,,,,,,,,
Harrington,1,360.0,339.0,339.0,120.0,OP,1976,Coal,Coal,CT,6193,TX,35.29816,-101.747187,MRO,SWPP,,,,,,,,,,,,,,,,,,,,,,,,,,,,,,,,,,,,,,,,,,
Harrington,3,360.0,340.0,340.0,125.0,OP,1980,Coal,Coal,CT,6193,TX,35.29816,-101.747187,MRO,SWPP,,,,,,,,,,,,,,,,,,,,,,,,,,,,,,,,,,,,,,,,,,
Mankato Energy Center,STG1,360.0,300.0,305.0,145.0,OP,2006,Gas_CC,Gas,CC,56104,MN,44.1988,-94.003,MRO,MISO,,,,,,,,,,,,,,,,,,,,,,,,,,,,,,,,,,,,,,,,,,
Wolf Hollow II,CGT5,360.0,329.3,354.6,113.0,OP,2017,Gas_CC,Gas,CT,59812,TX,32.337679,-97.734612,TRE,ERCO,,,,,,,,,,,,,,,,,,,,,,,,,,,,,,,,,,,,,,,,,,
Keys Energy Center,10,359.6,325.0,299.0,60.0,OP,2018,Gas_CC,Gas,CC,60302,MD,38.695519,-76.827785,RFC,PJM,,,,,,,,,,,,,,,,,,,,,,,,,,,,,,,,,,,,,,,,,,
Chesterfield,5,359.0,336.0,342.0,186.0,OP,1964,Coal,Coal,CT,3797,VA,37.3822,-77.3833,SERC,PJM,,,,,,,,,,,,,,,,,,,,,,,,,,,,,,,,,,,,,,,,,,
Herbert A Wagner,3,359.0,305.0,305.0,105.0,OP,1966,Coal,Coal,CT,1554,MD,39.1781,-76.5268,RFC,PJM,,,,,,,,,,,,,,,,,,,,,,,,,,,,,,,,,,,,,,,,,,
Fremont Energy Center,CA01,358.7,345.1,345.1,127.0,OP,2012,Gas_CC,Gas,CC,55701,OH,41.377116,-83.161388,RFC,PJM,,,,,,,,,,,,,,,,,,,,,,,,,,,,,,,,,,,,,,,,,,
Taft Cogeneration Facility,ST1,358.7,299.1,323.5,75.0,OP,2002,Gas_CC,Gas,CC,55089,LA,29.9888,-90.4599,SERC,MISO,,,,,,,,,,,,,,,,,,,,,,,,,,,,,,,,,,,,,,,,,,
H L Spurlock,1,357.6,300.0,300.0,145.0,OP,1977,Coal,Coal,CT,6041,KY,38.7,-83.8181,SERC,PJM,,,,,,,,,,,,,,,,,,,,,,,,,,,,,,,,,,,,,,,,,,
Mill Creek (KY),2,355.5,297.0,297.0,115.0,OP,1974,Coal,Coal,CT,1364,KY,38.0525,-85.9103,SERC,LGEE,,,,,,,,,,,,,,,,,,,,,,,,,,,,,,,,,,,,,,,,,,
Mill Creek (KY),1,355.5,300.0,300.0,115.0,OP,1972,Coal,Coal,CT,1364,KY,38.0525,-85.9103,SERC,LGEE,,,,,,,,,,,,,,,,,,,,,,,,,,,,,,,,,,,,,,,,,,
Barney M Davis,1,352.0,292.0,292.0,60.0,OP,1974,Gas_SC,Gas,CT,4939,TX,27.6064,-97.3117,TRE,ERCO,,,,,,,,,,,,,,,,,,,,,,,,,,,,,,,,,,,,,,,,,,
Nueces Bay,7,351.0,319.0,325.0,100.0,OP,1972,Gas_CC,Gas,CC,3441,TX,27.819412,-97.419203,TRE,ERCO,,,,,,,,,,,,,,,,,,,,,,,,,,,,,,,,,,,,,,,,,,
Sim Gideon,3,351.0,335.0,340.0,57.0,OP,1972,Gas_SC,Gas,CT,3601,TX,30.1456,-97.2708,TRE,ERCO,,,,,,,,,,,,,,,,,,,,,,,,,,,,,,,,,,,,,,,,,,
Barney M Davis,2,351.0,319.0,325.0,100.0,OP,1976,Gas_CC,Gas,CC,4939,TX,27.6064,-97.3117,TRE,ERCO,,,,,,,,,,,,,,,,,,,,,,,,,,,,,,,,,,,,,,,,,,
Wilkes,3,351.0,354.0,362.0,40.0,OP,1971,Gas_SC,Gas,CT,3478,TX,32.848163,-94.547986,MRO,SWPP,,,,,,,,,,,,,,,,,,,,,,,,,,,,,,,,,,,,,,,,,,
Wilkes,2,351.0,355.0,365.0,40.0,OP,1970,Gas_SC,Gas,CT,3478,TX,32.848163,-94.547986,MRO,SWPP,,,,,,,,,,,,,,,,,,,,,,,,,,,,,,,,,,,,,,,,,,
Knox Lee,5,351.0,342.0,348.0,75.0,OP,1974,Gas_SC,Gas,CT,3476,TX,32.3766,-94.6415,MRO,SWPP,,,,,,,,,,,,,,,,,,,,,,,,,,,,,,,,,,,,,,,,,,
Weston,3,350.5,334.7,339.8,70.0,OP,1981,Coal,Coal,CT,4078,WI,44.8606,-89.6553,MRO,MISO,,,,,,,,,,,,,,,,,,,,,,,,,,,,,,,,,,,,,,,,,,
Colusa Generating Station,C,349.4,306.0,306.0,40.0,OP,2010,Gas_CC,Gas,CC,56532,CA,39.3661,-122.27,WECC,CISO,,,,,Colusa CC1b,,,6.0,2.0,-1.0,20.352,20.352,26403.87,81.408,1.0,2.1,334.0,165.0,1206.83,33.167,6.054,33.166,6.083,,,,,,,,,,15927.0,,colusacc1b,,31924.0,COLUSAPPCTG2,Existing,CIPV,CA_CISO,
Astoria Station,1,349.0,244.2,284.5,142.0,OP,2021,Gas_SC,Gas,CT,61144,SD,44.574965,-96.55942,MRO,MISO,,,,,,,,,,,,,,,,,,,,,,,,,,,,,,,,,,,,,,,,,,
Holcomb,1,348.7,359.1,359.1,95.0,OP,1983,Coal,Coal,CT,108,KS,37.9308,-100.9725,MRO,SWPP,,,,,,,,,,,,,,,,,,,,,,,,,,,,,,,,,,,,,,,,,,
Marshall (NC),2,348.5,370.0,380.0,140.0,OP,1966,Coal,Coal,CT,2727,NC,35.5975,-80.9658,SERC,DUK,,,,,,,,,,,,,,,,,,,,,,,,,,,,,,,,,,,,,,,,,,
Marshall (NC),1,348.5,370.0,380.0,140.0,OP,1965,Gas_SC,Gas,CT,2727,NC,35.5975,-80.9658,SERC,DUK,,,,,,,,,,,,,,,,,,,,,,,,,,,,,,,,,,,,,,,,,,
Teche,3,348.5,260.0,328.0,65.0,OP,1971,Gas_SC,Gas,CT,1400,LA,29.822222,-91.5425,SERC,MISO,,,,,,,,,,,,,,,,,,,,,,,,,,,,,,,,,,,,,,,,,,
Allen,CTG1,347.0,311.9,330.3,0.0,OP,2018,Gas_CC,Gas,CT,3393,TN,35.074087,-90.14868,SERC,TVA,,,,,,,,,,,,,,,,,,,,,,,,,,,,,,,,,,,,,,,,,,
Allen,CTG2,347.0,311.9,330.3,0.0,OP,2018,Gas_CC,Gas,CT,3393,TN,35.074087,-90.14868,SERC,TVA,,,,,,,,,,,,,,,,,,,,,,,,,,,,,,,,,,,,,,,,,,
Merrimack,2,345.6,330.5,330.0,120.0,OP,1968,Coal,Coal,CT,2364,NH,43.1411,-71.4692,NPCC,ISNE,,,,,,,,,,,,,,,,,,,,,,,,,,,,,,,,,,,,,,,,,,
Holland Energy Facility,STG1,345.1,320.1,330.0,50.0,OP,2002,Gas_CC,Gas,CC,55334,IL,39.223144,-88.758406,SERC,MISO,,,,,,,,,,,,,,,,,,,,,,,,,,,,,,,,,,,,,,,,,,
South Field Energy,SFCT1,344.4,344.4,344.4,250.0,OP,2021,Gas_CC,Gas,CT,60356,OH,40.63534,-80.678245,RFC,PJM,,,,,,,,,,,,,,,,,,,,,,,,,,,,,,,,,,,,,,,,,,
South Field Energy,SFCT2,344.4,344.4,344.4,250.0,OP,2021,Gas_CC,Gas,CT,60356,OH,40.63534,-80.678245,RFC,PJM,,,,,,,,,,,,,,,,,,,,,,,,,,,,,,,,,,,,,,,,,,
Fort St Vrain,1,342.6,301.0,304.0,39.0,OP,1998,Gas_CC,Gas,CC,6112,CO,40.2461,-104.8742,WECC,PSCO,,,,,Fort St Vrain CC1c,,,4.0,1.6,-1.0,13.25012,13.25012,12763.9554,41.732479999999995,1.0,1.484,208.0,112.0,1004.28454,24.1998,6.446599999999999,24.2004,6.8512,,,,,,,,,,15947.0,,fortstvraincc1c,,70408.0,ST.VR_4,Existing,PSCO,RM_PSCO,
Arthur Kill Generating Station,2,342.0,346.3,362.1,90.0,OP,1959,Gas_SC,Gas,CT,2490,NY,40.591564,-74.200035,NPCC,NYIS,,,,,,,,,,,,,,,,,,,,,,,,,,,,,,,,,,,,,,,,,,
"Clean Energy Future-Lordstown, LLC",STG1,340.0,321.6,328.5,136.0,OP,2018,Gas_CC,Gas,CC,60376,OH,41.14889,-80.85162,RFC,PJM,,,,,,,,,,,,,,,,,,,,,,,,,,,,,,,,,,,,,,,,,,
Panda Temple Power Station,STG-1,339.2,326.0,326.0,70.0,OP,2014,Gas_CC,Gas,CC,58001,TX,31.055833,-97.317222,TRE,ERCO,,,,,,,,,,,,,,,,,,,,,,,,,,,,,,,,,,,,,,,,,,
Panda Temple Power Station,STG-2,339.2,312.0,326.0,70.0,OP,2015,Gas_CC,Gas,CC,58001,TX,31.055833,-97.317222,TRE,ERCO,,,,,,,,,,,,,,,,,,,,,,,,,,,,,,,,,,,,,,,,,,
Panda Sherman Power Station,STG-1,339.2,287.0,316.0,150.0,OP,2014,Gas_CC,Gas,CC,58005,TX,33.582573,-96.617893,TRE,ERCO,,,,,,,,,,,,,,,,,,,,,,,,,,,,,,,,,,,,,,,,,,
"Potomac Energy Center, LLC",GEN3,338.0,326.0,322.0,165.0,OP,2017,Gas_CC,Gas,CC,59004,VA,39.058056,-77.545,SERC,PJM,,,,,,,,,,,,,,,,,,,,,,,,,,,,,,,,,,,,,,,,,,
Rocky Mountain Energy Center,STG1,334.9,290.0,301.0,64.0,OP,2004,Gas_CC,Gas,CC,55835,CO,40.0908,-104.5953,WECC,PSCO,,,,,Rocky Mtn CC1b,,,8.0,2.0,-1.0,17.105,17.105,27096.11,74.64,1.0,1.8,312.5,122.5,974.2799,110.5,6.154,79.5,8.5,,,,,,,,,,16047.0,,rockymtncc1b,,70589.0,RMEC2,Existing,PSCO,RM_PSCO,
W H Sammis,5,334.0,290.0,290.0,135.0,OP,1967,Coal,Coal,CT,2866,OH,40.5317,-80.6319,RFC,PJM,,,,,,,,,,,,,,,,,,,,,,,,,,,,,,,,,,,,,,,,,,
High Desert Power Plant,STG1,333.0,305.3,310.0,60.0,OP,2003,Gas_CC,Gas,CC,55518,CA,34.5953,-117.3647,WECC,CISO,,,,,High Desert CC1c,,,6.0,2.0,-1.0,15.949980000000002,15.949980000000002,20692.87,63.79999999999999,1.0,2.1,267.0,166.667,1230.158,33.444,6.017,33.445,6.723,,,,,,,,,,15976.0,,highdesertcc1c,,29003.0,HIDEDCT1,Existing,CISC,CA_CISO,
Higgins Generating Station,ST1,332.4,266.0,283.0,110.0,OP,2004,Gas_CC,Gas,CC,55687,NV,35.6139,-115.3561,WECC,NEVP,,,,,Higgins CC1b,,,6.0,2.0,-1.0,19.242,19.242,24963.8,76.968,1.0,2.1,320.7,133.87,1013.333,48.68,5.515,60.85,6.535,,,,,,,,,,15973.0,,higginscc1b,,18409.0,HIGGINS1,Existing,NEVP,SW_NVE,
Edwardsport,ST,331.5,595.0,618.0,185.0,OP,2013,Coal,Coal,CC,1004,IN,38.8067,-87.2472,RFC,MISO,,,,,,,,,,,,,,,,,,,,,,,,,,,,,,,,,,,,,,,,,,
Canal,3,330.0,330.0,367.7,103.0,OP,2019,Gas_SC,Gas,CT,1599,MA,41.7694,-70.5097,NPCC,ISNE,,,,,,,,,,,,,,,,,,,,,,,,,,,,,,,,,,,,,,,,,,
Chuck Lenzie Generating Station,ST1,329.8,253.0,265.0,45.0,OP,2006,Gas_CC,Gas,CC,55322,NV,36.383719,-114.921779,WECC,NEVP,,,,,C Lenzie CC2b,,,6.0,2.0,-1.0,17.55,17.55,22768.67,70.2,1.0,2.1,300.0,135.0,1052.0639999999999,37.667,5.584,37.666,6.0920000000000005,,,,,,,,,,15917.0,,clenziecc2b,,18435.0,LENZIE 5,Existing,NEVP,SW_NVE,
Chuck Lenzie Generating Station,ST2,329.8,253.0,265.0,45.0,OP,2006,Gas_CC,Gas,CC,55322,NV,36.383719,-114.921779,WECC,NEVP,,,,,C Lenzie CC2b,,,6.0,2.0,-1.0,17.55,17.55,22768.67,70.2,1.0,2.1,300.0,135.0,1052.0639999999999,37.667,5.584,37.666,6.0920000000000005,,,,,,,,,,15917.0,,clenziecc2b,,18435.0,LENZIE 5,Existing,NEVP,SW_NVE,
H L Spurlock,4,329.4,268.0,268.0,180.0,OP,2009,Coal,Coal,CT,6041,KY,38.7,-83.8181,SERC,PJM,,,,,,,,,,,,,,,,,,,,,,,,,,,,,,,,,,,,,,,,,,
H L Spurlock,3,329.4,268.0,268.0,180.0,OP,2005,Coal,Coal,CT,6041,KY,38.7,-83.8181,SERC,PJM,,,,,,,,,,,,,,,,,,,,,,,,,,,,,,,,,,,,,,,,,,
CPV St Charles Energy Center,STGEN,328.1,303.6,324.1,0.0,OP,2017,Gas_CC,Gas,CC,56846,MD,38.5686,-76.8919,RFC,PJM,,,,,,,,,,,,,,,,,,,,,,,,,,,,,,,,,,,,,,,,,,
Oregon Clean Energy Center,CTG11,328.0,256.5,313.6,128.0,OP,2017,Gas_CC,Gas,CT,59764,OH,41.667928,-83.443664,RFC,PJM,,,,,,,,,,,,,,,,,,,,,,,,,,,,,,,,,,,,,,,,,,
Oregon Clean Energy Center,CTG12,328.0,256.5,313.6,128.0,OP,2017,Gas_CC,Gas,CT,59764,OH,41.667928,-83.443664,RFC,PJM,,,,,,,,,,,,,,,,,,,,,,,,,,,,,,,,,,,,,,,,,,
Gallatin (TN),4,327.6,263.0,266.0,130.0,OP,1959,Coal,Coal,CT,3403,TN,36.3156,-86.4006,SERC,TVA,,,,,,,,,,,,,,,,,,,,,,,,,,,,,,,,,,,,,,,,,,
Gallatin (TN),3,327.6,263.0,266.0,130.0,OP,1959,Coal,Coal,CT,3403,TN,36.3156,-86.4006,SERC,TVA,,,,,,,,,,,,,,,,,,,,,,,,,,,,,,,,,,,,,,,,,,
Woodbridge Energy Center,ST001,327.5,314.8,309.4,70.0,OP,2015,Gas_CC,Gas,CC,57839,NJ,40.515,-74.318889,RFC,PJM,,,,,,,,,,,,,,,,,,,,,,,,,,,,,,,,,,,,,,,,,,
Buck,ST10,327.3,304.0,306.0,255.0,OP,2011,Gas_CC,Gas,CC,2720,NC,35.7133,-80.3767,SERC,DUK,,,,,,,,,,,,,,,,,,,,,,,,,,,,,,,,,,,,,,,,,,
Dan River,ST7,327.3,308.0,306.0,300.0,OP,2012,Gas_CC,Gas,CC,2723,NC,36.4862,-79.7208,SERC,DUK,,,,,,,,,,,,,,,,,,,,,,,,,,,,,,,,,,,,,,,,,,
Bergen Generating Station,1501,325.2,204.0,204.0,92.0,OP,1959,Gas_CC,Gas,CC,2398,NJ,40.8375,-74.0244,RFC,PJM,,,,,,,,,,,,,,,,,,,,,,,,,,,,,,,,,,,,,,,,,,
South Oak Creek,8,324.0,311.4,315.4,80.0,OP,1967,Coal,Coal,CT,4041,WI,42.8457,-87.8294,RFC,MISO,,,,,,,,,,,,,,,,,,,,,,,,,,,,,,,,,,,,,,,,,,
Warrick,4,323.0,301.0,309.9,80.0,OP,1970,Coal,Coal,CT,6705,IN,37.915,-87.3328,RFC,MISO,,,,,,,,,,,,,,,,,,,,,,,,,,,,,,,,,,,,,,,,,,
Mesquite Generating Station Block 1,ST1,321.0,300.0,300.0,90.0,OP,2003,Gas_CC,Gas,CC,58557,AZ,33.345,-112.864167,WECC,SRP,,,,,Mesquite CC1b,,,6.0,2.0,-1.0,18.27,18.27,23702.77,73.08,1.0,2.1,322.5,162.5,1173.815,26.667,5.479,26.666,6.02,,,,,,,,,,16009.0,,mesquitecc1b,,15165.0,MES-CT2,Existing,TH_PV,SW_TH_PV,
Mesquite Generating Station Block 2,ST2,321.0,300.0,300.0,110.0,OP,2003,Gas_CC,Gas,CC,55481,AZ,33.345047,-112.864227,WECC,SRP,,,,,Mesquite CC2b,,,6.0,2.0,-1.0,18.03,18.03,23391.4,72.12,1.0,2.1,312.0,160.0,1183.8,27.167,5.579,27.166,6.062,,,,,,,,,,16011.0,,mesquitecc2b,,15168.0,MES-CT6,Existing,TH_PV,SW_TH_PV,
South Oak Creek,7,317.6,304.1,308.0,80.0,OP,1965,Coal,Coal,CT,4041,WI,42.8457,-87.8294,RFC,MISO,,,,,,,,,,,,,,,,,,,,,,,,,,,,,,,,,,,,,,,,,,
Kiamichi Energy Facility,STG2,317.2,314.9,288.7,70.0,OP,2003,Gas_CC,Gas,CC,55501,OK,34.6831,-95.9349,TRE,ERCO,,,,,,,,,,,,,,,,,,,,,,,,,,,,,,,,,,,,,,,,,,
Kiamichi Energy Facility,STG1,317.2,313.7,285.3,70.0,OP,2003,Gas_CC,Gas,CC,55501,OK,34.6831,-95.9349,TRE,ERCO,,,,,,,,,,,,,,,,,,,,,,,,,,,,,,,,,,,,,,,,,,
Fayette Energy Facility,STG1,317.1,312.2,302.1,120.0,OP,2003,Gas_CC,Gas,CC,55516,PA,39.8592,-79.9182,RFC,PJM,,,,,,,,,,,,,,,,,,,,,,,,,,,,,,,,,,,,,,,,,,
Hanging Rock Energy Facility,1ST,317.1,316.0,311.0,150.0,OP,2003,Gas_CC,Gas,CC,55736,OH,38.5731,-82.7833,RFC,PJM,,,,,,,,,,,,,,,,,,,,,,,,,,,,,,,,,,,,,,,,,,
Washington Energy Facility,ST1,317.1,303.0,310.0,120.0,OP,2002,Gas_CC,Gas,CC,55397,OH,39.58,-81.6564,RFC,PJM,,,,,,,,,,,,,,,,,,,,,,,,,,,,,,,,,,,,,,,,,,
Grays Harbor Energy Facility,ST1,317.1,291.0,291.0,100.0,OP,2008,Gas_CC,Gas,CC,7999,WA,46.9692,-123.48,WECC,BPAT,,,,,Grays Harbor CC1b,,,6.0,2.0,-1.0,19.71,19.71,25570.96,78.84,1.0,2.1,322.5,172.5,1245.647,29.167,5.565,29.166,5.958,,,,,,,,,,15961.0,,graysharborcc1b,,47597.0,GRAYS_HRB_G2,Existing,BPAT,NW_BPAT,
Hanging Rock Energy Facility,2ST,317.1,314.0,312.0,150.0,OP,2003,Gas_CC,Gas,CC,55736,OH,38.5731,-82.7833,RFC,PJM,,,,,,,,,,,,,,,,,,,,,,,,,,,,,,,,,,,,,,,,,,
